$GPRMC,225654.00,A,5556.37996,N,00313.09401,W,0.722,,070415,,,A*6C
$GPVTG,,T,,M,0.722,N,1.337,K,A*22
$GPGGA,225654.00,5556.37996,N,00313.09401,W,1,07,3.70,113.7,M,49.8,M,,*42
$GPGSA,A,3,27,16,21,18,22,19,04,,,,,,8.18,3.70,7.30*07
$GPGSV,3,1,12,04,09,230,14,07,25,298,,11,01,247,,13,09,015,09*74
$GPGSV,3,2,12,15,08,048,20,16,57,185,22,18,42,100,38,19,47,276,20*7F
$GPGSV,3,3,12,21,34,065,33,22,32,144,29,27,80,271,22,30,15,328,19*79
$GPGLL,5556.37996,N,00313.09401,W,225654.00,A,A*75
$GPRMC,225655.00,A,5556.37997,N,00313.09449,W,0.726,,070415,,,A*64
$GPVTG,,T,,M,0.726,N,1.344,K,A*22
$GPGGA,225655.00,5556.37997,N,00313.09449,W,1,07,3.70,113.6,M,49.8,M,,*4F
$GPGSA,A,3,27,16,21,18,22,19,04,,,,,,8.18,3.70,7.30*07
$GPGSV,3,1,12,04,09,230,13,07,25,298,,11,01,247,,13,09,015,09*73
$GPGSV,3,2,12,15,08,048,20,16,57,185,22,18,42,100,38,19,47,276,19*75
$GPGSV,3,3,12,21,34,065,33,22,32,144,29,27,80,271,22,30,15,328,19*79
$GPGLL,5556.37997,N,00313.09449,W,225655.00,A,A*79
$GPRMC,225656.00,A,5556.37997,N,00313.09458,W,0.341,,070415,,,A*62
$GPVTG,,T,,M,0.341,N,0.631,K,A*21
$GPGGA,225656.00,5556.37997,N,00313.09458,W,1,07,3.70,113.5,M,49.8,M,,*4F
$GPGSA,A,3,27,16,21,18,22,19,04,,,,,,8.18,3.70,7.30*07
$GPGSV,3,1,12,04,09,230,13,07,25,298,,11,01,247,,13,09,015,09*73
$GPGSV,3,2,12,15,08,048,21,16,57,185,22,18,42,100,38,19,47,276,19*74
$GPGSV,3,3,12,21,34,065,33,22,32,144,29,27,80,271,21,30,15,328,19*7A
$GPGLL,5556.37997,N,00313.09458,W,225656.00,A,A*7A
$GPRMC,225657.00,A,5556.38018,N,00313.09600,W,0.416,,070415,,,A*68
$GPVTG,,T,,M,0.416,N,0.771,K,A*21
$GPGGA,225657.00,5556.38018,N,00313.09600,W,1,07,1.52,113.3,M,49.8,M,,*44
$GPGSA,A,3,27,16,21,18,22,19,04,,,,,,3.70,1.52,3.37*03
$GPGSV,3,1,12,04,09,230,12,07,25,298,,11,01,247,,13,09,015,08*73
$GPGSV,3,2,12,15,08,048,19,16,57,185,21,18,42,100,38,19,47,276,19*7C
$GPGSV,3,3,12,21,34,065,32,22,32,144,28,27,80,271,19,30,15,328,18*70
$GPGLL,5556.38018,N,00313.09600,W,225657.00,A,A*75
$GPRMC,225658.00,A,5556.38029,N,00313.09700,W,0.250,,070415,,,A*60
$GPVTG,,T,,M,0.250,N,0.463,K,A*25
$GPGGA,225658.00,5556.38029,N,00313.09700,W,1,07,1.52,113.1,M,49.8,M,,*4A
$GPGSA,A,3,27,16,21,18,22,19,04,,,,,,3.70,1.52,3.37*03
$GPGSV,3,1,12,04,09,230,08,07,25,298,,11,01,247,,13,09,015,13*72
$GPGSV,3,2,12,15,08,048,18,16,57,185,20,18,42,100,37,19,47,276,19*73
$GPGSV,3,3,12,21,34,065,32,22,32,144,28,27,80,271,19,30,15,328,17*7F
$GPGLL,5556.38029,N,00313.09700,W,225658.00,A,A*79
$GPRMC,225659.00,A,5556.38040,N,00313.09784,W,0.165,,070415,,,A*67
$GPVTG,,T,,M,0.165,N,0.305,K,A*27
$GPGGA,225659.00,5556.38040,N,00313.09784,W,1,07,1.52,112.7,M,49.8,M,,*4F
$GPGSA,A,3,27,16,21,18,22,19,04,,,,,,3.70,1.52,3.37*03
$GPGSV,3,1,12,04,09,230,08,07,25,298,,11,01,247,,13,09,015,13*72
$GPGSV,3,2,12,15,08,048,18,16,57,185,19,18,42,100,37,19,47,276,20*73
$GPGSV,3,3,12,21,34,065,32,22,32,144,28,27,80,271,18,30,15,328,17*7E
$GPGLL,5556.38040,N,00313.09784,W,225659.00,A,A*7B
$GPRMC,225700.00,A,5556.38044,N,00313.09589,W,1.557,,070415,,,A*65
$GPVTG,,T,,M,1.557,N,2.883,K,A*24
$GPGGA,225700.00,5556.38044,N,00313.09589,W,1,07,1.31,114.0,M,49.8,M,,*4D
$GPGSA,A,3,27,16,21,18,22,19,04,,,,,,2.14,1.31,1.69*0C
$GPGSV,3,1,12,04,09,230,08,07,25,298,,11,01,247,,13,09,015,13*72
$GPGSV,3,2,12,15,08,048,17,16,57,185,20,18,42,100,38,19,47,276,21*78
$GPGSV,3,3,12,21,34,065,33,22,32,144,28,27,80,271,18,30,15,328,18*70
$GPGLL,5556.38044,N,00313.09589,W,225700.00,A,A*7D
$GPRMC,225701.00,A,5556.38052,N,00313.09401,W,2.627,87.72,070415,,,A*41
$GPVTG,87.72,T,,M,2.627,N,4.865,K,A*09
$GPGGA,225701.00,5556.38052,N,00313.09401,W,1,07,1.31,115.6,M,49.8,M,,*4D
$GPGSA,A,3,27,16,21,18,22,19,04,,,,,,2.14,1.31,1.69*0C
$GPGSV,3,1,12,04,09,230,08,07,25,298,,11,01,247,,13,09,015,13*72
$GPGSV,3,2,12,15,08,048,17,16,57,185,19,18,42,100,38,19,47,276,21*72
$GPGSV,3,3,12,21,34,065,33,22,32,144,28,27,80,271,17,30,15,328,19*7E
$GPGLL,5556.38052,N,00313.09401,W,225701.00,A,A*7A
$GPRMC,225702.00,A,5556.38053,N,00313.09133,W,3.950,88.78,070415,,,A*4C
$GPVTG,88.78,T,,M,3.950,N,7.315,K,A*0D
$GPGGA,225702.00,5556.38053,N,00313.09133,W,1,07,1.31,117.4,M,49.8,M,,*4B
$GPGSA,A,3,27,16,21,18,22,19,04,,,,,,2.14,1.31,1.69*0C
$GPGSV,3,1,12,04,09,230,08,07,25,298,,11,01,247,,13,09,015,13*72
$GPGSV,3,2,12,15,08,048,17,16,57,185,19,18,42,100,38,19,47,276,21*72
$GPGSV,3,3,12,21,34,065,33,22,32,144,28,27,80,271,17,30,15,328,19*7E
$GPGLL,5556.38053,N,00313.09133,W,225702.00,A,A*7C
$GPRMC,225703.00,A,5556.38067,N,00313.09183,W,2.444,89.43,070415,,,A*41
$GPVTG,89.43,T,,M,2.444,N,4.527,K,A*09
$GPGGA,225703.00,5556.38067,N,00313.09183,W,1,06,1.52,117.1,M,49.8,M,,*47
$GPGSA,A,3,27,16,21,18,22,19,,,,,,,3.70,1.52,3.38*08
$GPGSV,3,1,12,04,09,230,,07,25,298,,11,01,247,,13,09,015,13*7A
$GPGSV,3,2,12,15,08,048,17,16,57,185,18,18,42,100,37,19,47,276,21*7C
$GPGSV,3,3,12,21,34,065,33,22,32,144,27,27,80,271,16,30,15,328,17*7E
$GPGLL,5556.38067,N,00313.09183,W,225703.00,A,A*71
$GPRMC,225704.00,A,5556.38076,N,00313.09248,W,1.350,,070415,,,A*6B
$GPVTG,,T,,M,1.350,N,2.500,K,A*23
$GPGGA,225704.00,5556.38076,N,00313.09248,W,1,06,1.52,117.1,M,49.8,M,,*44
$GPGSA,A,3,27,16,21,18,22,19,,,,,,,3.70,1.52,3.38*08
$GPGSV,3,1,12,04,09,230,,07,25,298,,11,01,247,,13,09,015,14*7D
$GPGSV,3,2,12,15,08,048,14,16,57,185,17,18,42,100,37,19,47,276,21*70
$GPGSV,3,3,12,21,34,065,33,22,32,144,27,27,80,271,15,30,15,328,16*7C
$GPGLL,5556.38076,N,00313.09248,W,225704.00,A,A*72
$GPRMC,225705.00,A,5556.38078,N,00313.09246,W,1.427,,070415,,,A*6D
$GPVTG,,T,,M,1.427,N,2.643,K,A*20
$GPGGA,225705.00,5556.38078,N,00313.09246,W,1,06,1.52,116.9,M,49.8,M,,*4C
$GPGSA,A,3,27,16,21,18,22,19,,,,,,,3.70,1.52,3.38*08
$GPGSV,3,1,12,04,09,230,,07,25,298,,11,01,247,,13,09,015,14*7D
$GPGSV,3,2,12,15,08,048,14,16,57,185,18,18,42,100,37,19,47,276,21*7F
$GPGSV,3,3,12,21,34,065,32,22,32,144,27,27,80,271,14,30,15,328,17*7D
$GPGLL,5556.38078,N,00313.09246,W,225705.00,A,A*73
$GPRMC,225706.00,A,5556.38080,N,00313.09268,W,1.176,,070415,,,A*64
$GPVTG,,T,,M,1.176,N,2.178,K,A*2E
$GPGGA,225706.00,5556.38080,N,00313.09268,W,1,06,1.52,116.7,M,49.8,M,,*4A
$GPGSA,A,3,27,16,21,18,22,19,,,,,,,3.70,1.52,3.38*08
$GPGSV,3,1,12,04,09,230,,07,25,298,,11,01,247,,13,09,015,14*7D
$GPGSV,3,2,12,15,08,048,13,16,57,185,18,18,42,100,37,19,47,276,21*78
$GPGSV,3,3,12,21,34,065,32,22,32,144,27,27,80,271,12,30,15,328,17*7B
$GPGLL,5556.38080,N,00313.09268,W,225706.00,A,A*7B
$GPRMC,225707.00,A,5556.38088,N,00313.09345,W,0.561,,070415,,,A*60
$GPVTG,,T,,M,0.561,N,1.038,K,A*2B
$GPGGA,225707.00,5556.38088,N,00313.09345,W,1,06,1.52,116.5,M,49.8,M,,*4F
$GPGSA,A,3,27,16,21,18,22,19,,,,,,,3.70,1.52,3.38*08
$GPGSV,3,1,12,04,09,230,,07,25,298,,11,01,247,,13,09,015,14*7D
$GPGSV,3,2,12,15,08,048,12,16,57,185,18,18,42,100,37,19,47,276,20*78
$GPGSV,3,3,12,21,34,065,32,22,32,144,27,27,80,271,12,30,15,328,18*74
$GPGLL,5556.38088,N,00313.09345,W,225707.00,A,A*7C
$GPRMC,225708.00,A,5556.38092,N,00313.09371,W,0.522,,070415,,,A*64
$GPVTG,,T,,M,0.522,N,0.966,K,A*2F
$GPGGA,225708.00,5556.38092,N,00313.09371,W,1,06,1.52,116.4,M,49.8,M,,*4D
$GPGSA,A,3,27,16,21,18,22,19,,,,,,,3.70,1.52,3.38*08
$GPGSV,3,1,12,04,09,230,,07,25,298,,11,01,247,,13,09,015,14*7D
$GPGSV,3,2,12,15,08,048,12,16,57,185,18,18,42,100,35,19,47,276,20*7A
$GPGSV,3,3,12,21,34,065,32,22,32,144,27,27,80,271,11,30,15,328,19*76
$GPGLL,5556.38092,N,00313.09371,W,225708.00,A,A*7F
$GPRMC,225709.00,A,5556.38100,N,00313.09420,W,0.323,,070415,,,A*6B
$GPVTG,,T,,M,0.323,N,0.598,K,A*25
$GPGGA,225709.00,5556.38100,N,00313.09420,W,1,06,1.52,116.3,M,49.8,M,,*42
$GPGSA,A,3,27,16,21,18,22,19,,,,,,,3.70,1.52,3.38*08
$GPGSV,3,1,12,04,09,230,,07,25,298,,11,01,247,,13,09,015,14*7D
$GPGSV,3,2,12,15,08,048,12,16,57,185,18,18,42,100,38,19,47,276,20*77
$GPGSV,3,3,12,21,34,065,32,22,32,144,27,27,80,271,13,30,15,328,17*7A
$GPGLL,5556.38100,N,00313.09420,W,225709.00,A,A*77
$GPRMC,225710.00,A,5556.38103,N,00313.09461,W,0.438,,070415,,,A*68
$GPVTG,,T,,M,0.438,N,0.810,K,A*25
$GPGGA,225710.00,5556.38103,N,00313.09461,W,1,06,1.52,116.1,M,49.8,M,,*4E
$GPGSA,A,3,27,16,21,18,22,19,,,,,,,3.71,1.52,3.38*09
$GPGSV,3,1,12,04,09,230,,07,25,298,,11,01,247,,13,09,015,10*79
$GPGSV,3,2,12,15,08,048,12,16,57,185,18,18,42,100,38,19,47,276,21*76
$GPGSV,3,3,12,21,34,065,33,22,32,144,28,27,80,271,14,30,15,328,18*7C
$GPGLL,5556.38103,N,00313.09461,W,225710.00,A,A*79
$GPRMC,225711.00,A,5556.38108,N,00313.09502,W,0.429,,070415,,,A*66
$GPVTG,,T,,M,0.429,N,0.795,K,A*27
$GPGGA,225711.00,5556.38108,N,00313.09502,W,1,06,1.52,115.8,M,49.8,M,,*4A
$GPGSA,A,3,27,16,21,18,22,19,,,,,,,3.71,1.52,3.38*09
$GPGSV,3,1,12,04,09,230,,07,25,298,,11,01,247,,13,09,015,10*79
$GPGSV,3,2,12,15,08,048,10,16,57,185,18,18,42,100,38,19,47,276,21*74
$GPGSV,3,3,12,21,34,065,33,22,32,144,28,27,80,271,15,30,15,328,18*7D
$GPGLL,5556.38108,N,00313.09502,W,225711.00,A,A*77
$GPRMC,225712.00,A,5556.38114,N,00313.09538,W,0.270,,070415,,,A*6B
$GPVTG,,T,,M,0.270,N,0.500,K,A*23
$GPGGA,225712.00,5556.38114,N,00313.09538,W,1,06,1.52,115.8,M,49.8,M,,*4D
$GPGSA,A,3,27,16,21,18,22,19,,,,,,,3.71,1.52,3.38*09
$GPGSV,3,1,12,04,09,230,,07,25,298,,11,01,247,,13,09,015,10*79
$GPGSV,3,2,12,15,08,048,11,16,57,185,18,18,42,100,38,19,47,276,21*75
$GPGSV,3,3,12,21,34,065,33,22,32,144,28,27,80,271,15,30,15,328,18*7D
$GPGLL,5556.38114,N,00313.09538,W,225712.00,A,A*70
$GPRMC,225713.00,A,5556.38119,N,00313.09593,W,0.035,,070415,,,A*65
$GPVTG,,T,,M,0.035,N,0.065,K,A*26
$GPGGA,225713.00,5556.38119,N,00313.09593,W,1,06,1.52,115.7,M,49.8,M,,*4F
$GPGSA,A,3,27,16,21,18,22,19,,,,,,,3.71,1.52,3.38*09
$GPGSV,3,1,12,04,09,230,,07,25,298,,11,01,247,,13,09,015,10*79
$GPGSV,3,2,12,15,08,048,08,16,57,185,17,18,42,100,38,19,47,276,21*72
$GPGSV,3,3,12,21,34,065,33,22,32,144,28,27,80,271,16,30,15,328,18*7E
$GPGLL,5556.38119,N,00313.09593,W,225713.00,A,A*7D
$GPRMC,225714.00,A,5556.38130,N,00313.09681,W,0.356,,070415,,,A*6F
$GPVTG,,T,,M,0.356,N,0.660,K,A*23
$GPGGA,225714.00,5556.38130,N,00313.09681,W,1,06,1.52,115.8,M,49.8,M,,*4C
$GPGSA,A,3,27,16,21,18,22,19,,,,,,,3.71,1.52,3.38*09
$GPGSV,3,1,12,04,09,230,,07,25,298,,11,01,247,,13,09,015,10*79
$GPGSV,3,2,12,15,08,048,08,16,57,185,17,18,42,100,38,19,47,276,21*72
$GPGSV,3,3,12,21,34,065,33,22,32,144,28,27,80,271,16,30,15,328,18*7E
$GPGLL,5556.38130,N,00313.09681,W,225714.00,A,A*71
$GPRMC,225715.00,A,5556.38139,N,00313.09732,W,0.205,,070415,,,A*69
$GPVTG,,T,,M,0.205,N,0.379,K,A*29
$GPGGA,225715.00,5556.38139,N,00313.09732,W,1,06,1.52,115.7,M,49.8,M,,*42
$GPGSA,A,3,27,16,21,18,22,19,,,,,,,3.71,1.52,3.38*09
$GPGSV,3,1,12,04,09,230,,07,25,298,,11,01,247,,13,09,015,10*79
$GPGSV,3,2,12,15,08,048,08,16,57,185,17,18,42,100,38,19,47,276,20*73
$GPGSV,3,3,12,21,34,065,33,22,32,144,28,27,80,271,17,30,15,328,18*7F
$GPGLL,5556.38139,N,00313.09732,W,225715.00,A,A*70
$GPRMC,225716.00,A,5556.38150,N,00313.09802,W,0.392,,070415,,,A*66
$GPVTG,,T,,M,0.392,N,0.727,K,A*29
$GPGGA,225716.00,5556.38150,N,00313.09802,W,1,06,1.52,115.7,M,49.8,M,,*42
$GPGSA,A,3,27,16,21,18,22,19,,,,,,,3.71,1.52,3.38*09
$GPGSV,3,1,12,04,09,230,,07,25,298,,11,01,247,,13,09,015,13*7A
$GPGSV,3,2,12,15,08,048,06,16,57,185,17,18,42,100,37,19,47,276,20*72
$GPGSV,3,3,12,21,34,065,32,22,32,144,27,27,80,271,18,30,15,328,17*71
$GPGLL,5556.38150,N,00313.09802,W,225716.00,A,A*70
$GPRMC,225717.00,A,5556.38154,N,00313.09807,W,0.161,,070415,,,A*68
$GPVTG,,T,,M,0.161,N,0.297,K,A*29
$GPGGA,225717.00,5556.38154,N,00313.09807,W,1,06,1.52,115.7,M,49.8,M,,*42
$GPGSA,A,3,27,16,21,18,22,19,,,,,,,3.71,1.52,3.39*08
$GPGSV,3,1,12,04,09,230,,07,25,298,,11,01,247,,13,09,015,13*7A
$GPGSV,3,2,12,15,08,048,06,16,57,185,18,18,42,100,37,19,47,276,19*77
$GPGSV,3,3,12,21,34,065,32,22,32,144,27,27,80,271,19,30,15,328,17*70
$GPGLL,5556.38154,N,00313.09807,W,225717.00,A,A*70
$GPRMC,225718.00,A,5556.38164,N,00313.09837,W,0.238,,070415,,,A*68
$GPVTG,,T,,M,0.238,N,0.441,K,A*2B
$GPGGA,225718.00,5556.38164,N,00313.09837,W,1,06,1.52,115.7,M,49.8,M,,*4D
$GPGSA,A,3,27,16,21,18,22,19,,,,,,,3.71,1.52,3.39*08
$GPGSV,3,1,12,04,09,230,,07,25,298,,11,01,247,,13,09,015,13*7A
$GPGSV,3,2,12,15,08,048,06,16,57,185,18,18,42,100,37,19,47,276,19*77
$GPGSV,3,3,12,21,34,065,32,22,32,144,27,27,80,271,20,30,15,328,17*7A
$GPGLL,5556.38164,N,00313.09837,W,225718.00,A,A*7F
$GPRMC,225719.00,A,5556.38172,N,00313.09927,W,0.525,,070415,,,A*65
$GPVTG,,T,,M,0.525,N,0.973,K,A*2C
$GPGGA,225719.00,5556.38172,N,00313.09927,W,1,06,1.52,115.5,M,49.8,M,,*49
$GPGSA,A,3,27,16,21,18,22,19,,,,,,,3.71,1.52,3.39*08
$GPGSV,3,1,12,04,09,230,,07,25,298,,11,01,247,,13,09,015,12*7B
$GPGSV,3,2,12,15,08,048,05,16,57,185,17,18,42,100,37,19,47,276,20*71
$GPGSV,3,3,12,21,34,065,32,22,32,144,26,27,80,271,20,30,15,328,17*7B
$GPGLL,5556.38172,N,00313.09927,W,225719.00,A,A*79
$GPRMC,225720.00,A,5556.38173,N,00313.09926,W,0.051,,070415,,,A*69
$GPVTG,,T,,M,0.051,N,0.094,K,A*2A
$GPGGA,225720.00,5556.38173,N,00313.09926,W,1,06,1.52,115.2,M,49.8,M,,*44
$GPGSA,A,3,27,16,21,18,22,19,,,,,,,3.71,1.52,3.39*08
$GPGSV,3,1,12,04,09,230,,07,25,298,,11,01,247,,13,09,015,12*7B
$GPGSV,3,2,12,15,08,048,05,16,57,185,17,18,42,100,38,19,47,276,20*7E
$GPGSV,3,3,12,21,34,065,32,22,32,144,26,27,80,271,21,30,15,328,16*7B
$GPGLL,5556.38173,N,00313.09926,W,225720.00,A,A*73
$GPRMC,225721.00,A,5556.38181,N,00313.09994,W,0.264,,070415,,,A*68
$GPVTG,,T,,M,0.264,N,0.489,K,A*26
$GPGGA,225721.00,5556.38181,N,00313.09994,W,1,06,1.52,114.9,M,49.8,M,,*4B
$GPGSA,A,3,27,16,21,18,22,19,,,,,,,3.71,1.52,3.39*08
$GPGSV,3,1,12,04,09,230,,07,25,298,,11,01,247,,13,09,015,12*7B
$GPGSV,3,2,12,15,08,048,05,16,57,185,17,18,42,100,38,19,47,276,20*7E
$GPGSV,3,3,12,21,34,065,33,22,32,144,27,27,80,271,22,30,15,328,16*78
$GPGLL,5556.38181,N,00313.09994,W,225721.00,A,A*76
$GPRMC,225722.00,A,5556.38185,N,00313.10021,W,0.227,,070415,,,A*67
$GPVTG,,T,,M,0.227,N,0.421,K,A*23
$GPGGA,225722.00,5556.38185,N,00313.10021,W,1,06,1.52,114.5,M,49.8,M,,*4F
$GPGSA,A,3,27,16,21,18,22,19,,,,,,,3.71,1.52,3.39*08
$GPGSV,3,1,12,04,09,230,,07,25,298,18,11,01,247,,13,09,015,16*76
$GPGSV,3,2,12,15,08,048,07,16,57,185,17,18,42,100,38,19,47,276,20*7C
$GPGSV,3,3,12,21,34,065,33,22,32,144,27,27,80,271,23,30,15,328,17*78
$GPGLL,5556.38185,N,00313.10021,W,225722.00,A,A*7E
$GPRMC,225723.00,A,5556.38190,N,00313.10056,W,0.374,,070415,,,A*65
$GPVTG,,T,,M,0.374,N,0.693,K,A*2F
$GPGGA,225723.00,5556.38190,N,00313.10056,W,1,06,1.52,114.3,M,49.8,M,,*4C
$GPGSA,A,3,27,16,21,18,22,19,,,,,,,3.71,1.52,3.39*08
$GPGSV,3,1,12,04,09,230,,07,25,298,17,11,01,247,,13,09,015,16*79
$GPGSV,3,2,12,15,08,048,07,16,57,185,16,18,42,100,36,19,47,276,19*79
$GPGSV,3,3,12,21,34,065,32,22,32,144,26,27,80,271,23,30,15,328,16*79
$GPGLL,5556.38190,N,00313.10056,W,225723.00,A,A*7B
$GPRMC,225724.00,A,5556.38202,N,00313.10037,W,0.383,,070415,,,A*65
$GPVTG,,T,,M,0.383,N,0.709,K,A*25
$GPGGA,225724.00,5556.38202,N,00313.10037,W,1,06,1.52,113.8,M,49.8,M,,*48
$GPGSA,A,3,27,16,21,18,22,19,,,,,,,3.71,1.52,3.39*08
$GPGSV,3,1,12,04,09,230,,07,25,298,15,11,01,247,,13,09,015,16*7B
$GPGSV,3,2,12,15,08,048,,16,57,185,16,18,42,100,36,19,47,276,17*70
$GPGSV,3,3,12,21,34,065,32,22,32,144,25,27,80,271,23,30,15,328,16*7A
$GPGLL,5556.38202,N,00313.10037,W,225724.00,A,A*73
$GPRMC,225725.00,A,5556.38205,N,00313.10077,W,0.223,,070415,,,A*6C
$GPVTG,,T,,M,0.223,N,0.412,K,A*27
$GPGGA,225725.00,5556.38205,N,00313.10077,W,1,06,1.52,113.2,M,49.8,M,,*40
$GPGSA,A,3,27,16,21,18,22,19,,,,,,,3.71,1.52,3.39*08
$GPGSV,3,1,12,04,09,230,,07,25,298,16,11,01,248,,13,09,015,16*77
$GPGSV,3,2,12,15,08,048,,16,57,185,16,18,42,100,36,19,47,276,18*7F
$GPGSV,3,3,12,21,34,065,32,22,32,144,26,27,80,271,24,30,15,328,16*7E
$GPGLL,5556.38205,N,00313.10077,W,225725.00,A,A*71
$GPRMC,225726.00,A,5556.38205,N,00313.10096,W,0.355,,070415,,,A*60
$GPVTG,,T,,M,0.355,N,0.658,K,A*2B
$GPGGA,225726.00,5556.38205,N,00313.10096,W,1,06,1.52,112.5,M,49.8,M,,*4A
$GPGSA,A,3,27,16,21,18,22,19,,,,,,,3.72,1.52,3.39*0B
$GPGSV,3,1,12,04,09,230,,07,25,298,16,11,01,248,,13,09,015,16*77
$GPGSV,3,2,12,15,08,048,,16,57,185,15,18,42,100,39,19,47,276,18*73
$GPGSV,3,3,12,21,34,065,33,22,32,144,27,27,80,271,26,30,15,328,18*72
$GPGLL,5556.38205,N,00313.10096,W,225726.00,A,A*7D
$GPRMC,225727.00,A,5556.38205,N,00313.10078,W,0.101,,070415,,,A*62
$GPVTG,,T,,M,0.101,N,0.187,K,A*2D
$GPGGA,225727.00,5556.38205,N,00313.10078,W,1,06,1.52,112.0,M,49.8,M,,*4E
$GPGSA,A,3,27,16,21,18,22,19,,,,,,,3.72,1.52,3.39*0B
$GPGSV,3,1,12,04,09,230,,07,25,298,16,11,01,248,,13,09,015,16*77
$GPGSV,3,2,12,15,08,048,,16,57,185,14,18,42,100,36,19,47,276,18*7D
$GPGSV,3,3,12,21,34,065,31,22,32,144,26,27,80,271,25,30,15,328,19*73
$GPGLL,5556.38205,N,00313.10078,W,225727.00,A,A*7C
$GPRMC,225728.00,A,5556.38214,N,00313.10071,W,0.451,,070415,,,A*64
$GPVTG,,T,,M,0.451,N,0.836,K,A*2E
$GPGGA,225728.00,5556.38214,N,00313.10071,W,1,06,1.52,111.3,M,49.8,M,,*48
$GPGSA,A,3,27,16,21,18,22,19,,,,,,,3.72,1.52,3.39*0B
$GPGSV,3,1,12,04,09,230,,07,25,298,16,11,01,248,,13,09,015,14*75
$GPGSV,3,2,12,15,08,048,,16,57,185,13,18,42,100,36,19,47,276,18*7A
$GPGSV,3,3,12,21,34,065,32,22,32,144,26,27,80,271,25,30,15,328,18*71
$GPGLL,5556.38214,N,00313.10071,W,225728.00,A,A*7A
$GPRMC,225729.00,A,5556.38224,N,00313.10076,W,0.546,,070415,,,A*66
$GPVTG,,T,,M,0.546,N,1.012,K,A*26
$GPGGA,225729.00,5556.38224,N,00313.10076,W,1,06,1.52,110.6,M,49.8,M,,*49
$GPGSA,A,3,27,16,21,18,22,19,,,,,,,3.72,1.52,3.39*0B
$GPGSV,3,1,12,04,09,230,,07,25,298,15,11,01,248,,13,09,015,14*76
$GPGSV,3,2,12,15,09,048,,16,57,185,12,18,42,100,36,19,47,276,18*7A
$GPGSV,3,3,12,21,34,065,31,22,32,144,26,27,80,271,25,30,15,328,17*7D
$GPGLL,5556.38224,N,00313.10076,W,225729.00,A,A*7F
$GPRMC,225730.00,A,5556.38242,N,00313.10096,W,0.440,,070415,,,A*67
$GPVTG,,T,,M,0.440,N,0.814,K,A*2E
$GPGGA,225730.00,5556.38242,N,00313.10096,W,1,06,1.52,109.7,M,49.8,M,,*46
$GPGSA,A,3,27,16,21,18,22,19,,,,,,,3.72,1.52,3.39*0B
$GPGSV,3,1,12,04,09,230,,07,25,298,15,11,01,248,,13,09,015,14*76
$GPGSV,3,2,12,15,09,048,,16,56,185,12,18,42,100,36,19,47,276,17*74
$GPGSV,3,3,12,21,34,065,31,22,32,144,26,27,80,271,25,30,15,328,16*7C
$GPGLL,5556.38242,N,00313.10096,W,225730.00,A,A*79
$GPRMC,225731.00,A,5556.38250,N,00313.10128,W,0.399,,070415,,,A*62
$GPVTG,,T,,M,0.399,N,0.740,K,A*23
$GPGGA,225731.00,5556.38250,N,00313.10128,W,1,06,1.52,108.8,M,49.8,M,,*4E
$GPGSA,A,3,27,16,21,18,22,19,,,,,,,3.72,1.52,3.39*0B
$GPGSV,3,1,12,04,09,230,,07,25,298,15,11,01,248,,13,09,015,15*77
$GPGSV,3,2,12,15,09,048,,16,56,185,10,18,42,100,36,19,47,276,18*79
$GPGSV,3,3,12,21,34,065,32,22,32,144,26,27,80,271,25,30,15,328,16*7F
$GPGLL,5556.38250,N,00313.10128,W,225731.00,A,A*7F
$GPRMC,225732.00,A,5556.38250,N,00313.10145,W,0.177,,070415,,,A*68
$GPVTG,,T,,M,0.177,N,0.328,K,A*2B
$GPGGA,225732.00,5556.38250,N,00313.10145,W,1,05,1.69,107.9,M,49.8,M,,*43
$GPGSA,A,3,27,21,18,22,19,,,,,,,,3.95,1.69,3.57*05
$GPGSV,3,1,12,04,09,230,,07,25,298,15,11,01,248,,13,09,015,15*77
$GPGSV,3,2,12,15,09,048,,16,56,185,08,18,42,099,37,19,47,276,19*71
$GPGSV,3,3,12,21,34,065,33,22,32,144,27,27,80,271,26,30,15,328,18*72
$GPGLL,5556.38250,N,00313.10145,W,225732.00,A,A*77
$GPRMC,225733.00,A,5556.38255,N,00313.10197,W,0.193,,070415,,,A*69
$GPVTG,,T,,M,0.193,N,0.357,K,A*29
$GPGGA,225733.00,5556.38255,N,00313.10197,W,1,05,1.69,106.9,M,49.8,M,,*49
$GPGSA,A,3,27,21,18,22,19,,,,,,,,3.95,1.69,3.57*05
$GPGSV,3,1,12,04,09,230,,07,25,298,15,11,01,248,,13,09,015,15*77
$GPGSV,3,2,12,15,09,048,,16,56,185,,18,42,099,35,19,47,276,19*7B
$GPGSV,3,3,12,21,34,065,33,22,32,144,27,27,80,271,26,30,15,328,18*72
$GPGLL,5556.38255,N,00313.10197,W,225733.00,A,A*7C
$GPRMC,225734.00,A,5556.38252,N,00313.10203,W,0.059,,070415,,,A*60
$GPVTG,,T,,M,0.059,N,0.110,K,A*2F
$GPGGA,225734.00,5556.38252,N,00313.10203,W,1,05,1.69,106.1,M,49.8,M,,*4F
$GPGSA,A,3,27,21,18,22,19,,,,,,,,3.95,1.69,3.57*05
$GPGSV,3,1,12,04,09,230,,07,25,298,14,11,01,248,,13,09,015,15*76
$GPGSV,3,2,12,15,09,048,,16,56,185,,18,42,099,35,19,47,276,19*7B
$GPGSV,3,3,12,21,34,065,31,22,32,144,26,27,80,271,25,30,15,328,18*72
$GPGLL,5556.38252,N,00313.10203,W,225734.00,A,A*72
$GPRMC,225735.00,A,5556.38250,N,00313.10230,W,0.161,,070415,,,A*69
$GPVTG,,T,,M,0.161,N,0.298,K,A*26
$GPGGA,225735.00,5556.38250,N,00313.10230,W,1,05,1.69,105.2,M,49.8,M,,*4C
$GPGSA,A,3,27,21,18,22,19,,,,,,,,3.95,1.69,3.57*05
$GPGSV,3,1,12,04,09,230,,07,25,298,,11,01,248,,13,09,015,14*72
$GPGSV,3,2,12,15,09,048,,16,56,185,,18,42,099,39,19,47,276,18*76
$GPGSV,3,3,12,21,34,065,35,22,32,144,27,27,80,271,25,30,15,328,17*78
$GPGLL,5556.38250,N,00313.10230,W,225735.00,A,A*71
$GPRMC,225736.00,A,5556.38250,N,00313.10250,W,0.128,,070415,,,A*61
$GPVTG,,T,,M,0.128,N,0.236,K,A*2F
$GPGGA,225736.00,5556.38250,N,00313.10250,W,1,05,1.69,104.2,M,49.8,M,,*48
$GPGSA,A,3,27,21,18,22,19,,,,,,,,3.95,1.69,3.57*05
$GPGSV,3,1,12,04,09,230,,07,25,298,,11,01,248,,13,09,015,14*72
$GPGSV,3,2,12,15,09,048,,16,56,185,,18,42,099,38,19,47,276,19*76
$GPGSV,3,3,12,21,34,065,34,22,33,144,28,27,80,271,25,30,15,328,19*79
$GPGLL,5556.38250,N,00313.10250,W,225736.00,A,A*74
$GPRMC,225737.00,A,5556.38245,N,00313.10242,W,0.498,,070415,,,A*69
$GPVTG,,T,,M,0.498,N,0.923,K,A*2E
$GPGGA,225737.00,5556.38245,N,00313.10242,W,1,05,1.69,103.1,M,49.8,M,,*4A
$GPGSA,A,3,27,21,18,22,19,,,,,,,,3.95,1.69,3.57*05
$GPGSV,3,1,12,04,09,230,,07,25,298,,11,01,248,,13,09,015,14*72
$GPGSV,3,2,12,15,09,048,18,16,56,185,,18,42,099,38,19,47,276,19*7F
$GPGSV,3,3,12,21,34,065,34,22,33,144,28,27,80,271,25,30,15,328,19*79
$GPGLL,5556.38245,N,00313.10242,W,225737.00,A,A*72
$GPRMC,225738.00,A,5556.38237,N,00313.10230,W,0.717,,070415,,,A*62
$GPVTG,,T,,M,0.717,N,1.327,K,A*25
$GPGGA,225738.00,5556.38237,N,00313.10230,W,1,05,1.69,101.9,M,49.8,M,,*4F
$GPGSA,A,3,27,21,18,22,19,,,,,,,,3.95,1.69,3.57*05
$GPGSV,3,1,12,04,09,230,,07,25,298,,11,01,248,,13,09,015,14*72
$GPGSV,3,2,12,15,09,048,17,16,56,185,,18,42,099,35,19,47,276,19*7D
$GPGSV,3,3,12,21,34,065,31,22,33,144,27,27,80,271,24,30,15,328,19*72
$GPGLL,5556.38237,N,00313.10230,W,225738.00,A,A*7D
$GPRMC,225739.00,A,5556.38229,N,00313.10215,W,0.675,,070415,,,A*6E
$GPVTG,,T,,M,0.675,N,1.251,K,A*20
$GPGGA,225739.00,5556.38229,N,00313.10215,W,1,05,1.69,100.9,M,49.8,M,,*47
$GPGSA,A,3,27,21,18,22,19,,,,,,,,3.95,1.69,3.57*05
$GPGSV,3,1,12,04,09,230,,07,25,298,,11,01,248,,13,09,015,14*72
$GPGSV,3,2,12,15,09,048,18,16,56,185,,18,42,099,38,19,47,276,18*7E
$GPGSV,3,3,12,21,34,065,33,22,33,144,27,27,80,271,23,30,15,328,18*76
$GPGLL,5556.38229,N,00313.10215,W,225739.00,A,A*74
$GPRMC,225740.00,A,5556.38223,N,00313.10198,W,0.582,,070415,,,A*67
$GPVTG,,T,,M,0.582,N,1.078,K,A*22
$GPGGA,225740.00,5556.38223,N,00313.10198,W,1,05,1.69,99.8,M,49.8,M,,*75
$GPGSA,A,3,27,21,18,22,19,,,,,,,,3.95,1.69,3.57*05
$GPGSV,3,1,12,04,09,230,,07,25,298,,11,01,248,,13,09,015,06*71
$GPGSV,3,2,12,15,09,048,18,16,56,185,,18,42,099,37,19,47,276,17*7E
$GPGSV,3,3,12,21,34,065,33,22,33,144,26,27,80,271,22,30,15,328,19*77
$GPGLL,5556.38223,N,00313.10198,W,225740.00,A,A*76
$GPRMC,225741.00,A,5556.38221,N,00313.10184,W,0.573,,070415,,,A*67
$GPVTG,,T,,M,0.573,N,1.061,K,A*24
$GPGGA,225741.00,5556.38221,N,00313.10184,W,1,05,1.69,98.8,M,49.8,M,,*7A
$GPGSA,A,3,27,21,18,22,19,,,,,,,,3.95,1.69,3.57*05
$GPGSV,3,1,12,04,09,230,,07,25,298,,11,01,248,,13,09,015,06*71
$GPGSV,3,2,12,15,09,048,18,16,56,185,,18,42,099,37,19,47,276,17*7E
$GPGSV,3,3,12,21,34,065,33,22,33,144,27,27,80,271,22,30,15,328,18*77
$GPGLL,5556.38221,N,00313.10184,W,225741.00,A,A*78
$GPRMC,225742.00,A,5556.38216,N,00313.10171,W,0.531,,070415,,,A*6C
$GPVTG,,T,,M,0.531,N,0.984,K,A*21
$GPGGA,225742.00,5556.38216,N,00313.10171,W,1,05,1.69,97.9,M,49.8,M,,*79
$GPGSA,A,3,27,21,18,22,19,,,,,,,,3.95,1.69,3.57*05
$GPGSV,3,1,12,04,09,230,,07,25,298,,11,01,248,,13,09,015,06*71
$GPGSV,3,2,12,15,09,048,18,16,56,185,,18,42,099,37,19,47,276,18*71
$GPGSV,3,3,12,21,34,065,33,22,33,144,27,27,80,271,22,30,15,328,18*77
$GPGLL,5556.38216,N,00313.10171,W,225742.00,A,A*75
$GPRMC,225743.00,A,5556.38214,N,00313.10165,W,0.455,,070415,,,A*69
$GPVTG,,T,,M,0.455,N,0.843,K,A*28
$GPGGA,225743.00,5556.38214,N,00313.10165,W,1,05,1.69,96.8,M,49.8,M,,*7F
$GPGSA,A,3,27,21,18,22,19,,,,,,,,3.95,1.69,3.57*05
$GPGSV,3,1,12,04,09,230,,07,25,298,,11,01,248,,13,09,015,06*71
$GPGSV,3,2,12,15,09,048,18,16,56,185,,18,42,099,36,19,47,276,19*71
$GPGSV,3,3,12,21,34,065,32,22,33,144,26,27,80,271,20,30,15,328,16*7B
$GPGLL,5556.38214,N,00313.10165,W,225743.00,A,A*73
$GPRMC,225744.00,A,5556.38215,N,00313.10203,W,0.070,,070415,,,A*6F
$GPVTG,,T,,M,0.070,N,0.129,K,A*2E
$GPGGA,225744.00,5556.38215,N,00313.10203,W,1,05,1.69,95.9,M,49.8,M,,*78
$GPGSA,A,3,27,21,18,22,19,,,,,,,,3.95,1.69,3.57*05
$GPGSV,3,1,12,04,09,230,,07,25,298,,11,01,248,,13,09,015,06*71
$GPGSV,3,2,12,15,09,048,18,16,56,185,,18,42,099,36,19,47,276,19*71
$GPGSV,3,3,12,21,34,065,32,22,33,144,26,27,80,271,20,30,16,328,16*78
$GPGLL,5556.38215,N,00313.10203,W,225744.00,A,A*76
$GPRMC,225745.00,A,5556.38212,N,00313.10168,W,0.341,,070415,,,A*66
$GPVTG,,T,,M,0.341,N,0.631,K,A*21
$GPGGA,225745.00,5556.38212,N,00313.10168,W,1,05,1.69,95.1,M,49.8,M,,*78
$GPGSA,A,3,27,21,18,22,19,,,,,,,,3.95,1.69,3.57*05
$GPGSV,3,1,12,04,09,230,,07,25,298,,11,01,248,,13,09,015,*77
$GPGSV,3,2,12,15,09,048,18,16,56,185,,18,42,099,35,19,47,276,19*72
$GPGSV,3,3,12,21,34,065,32,22,33,144,26,27,80,271,19,30,16,328,15*71
$GPGLL,5556.38212,N,00313.10168,W,225745.00,A,A*7E
$GPRMC,225746.00,A,5556.38212,N,00313.10177,W,0.250,,070415,,,A*6A
$GPVTG,,T,,M,0.250,N,0.464,K,A*22
$GPGGA,225746.00,5556.38212,N,00313.10177,W,1,05,1.69,94.1,M,49.8,M,,*74
$GPGSA,A,3,27,21,18,22,19,,,,,,,,3.95,1.69,3.57*05
$GPGSV,3,1,12,04,09,230,,07,25,298,,11,01,248,,13,09,015,*77
$GPGSV,3,2,12,15,09,048,18,16,56,185,,18,42,099,36,19,47,276,20*7B
$GPGSV,3,3,12,21,34,065,32,22,33,144,26,27,80,271,19,30,16,328,15*71
$GPGLL,5556.38212,N,00313.10177,W,225746.00,A,A*73
$GPRMC,225747.00,A,5556.38209,N,00313.10180,W,0.243,,070415,,,A*6B
$GPVTG,,T,,M,0.243,N,0.450,K,A*27
$GPGGA,225747.00,5556.38209,N,00313.10180,W,1,05,1.69,93.2,M,49.8,M,,*73
$GPGSA,A,3,27,21,18,22,19,,,,,,,,3.95,1.69,3.57*05
$GPGSV,3,1,12,04,09,230,,07,25,298,,11,01,248,,13,09,015,*77
$GPGSV,3,2,12,15,09,048,19,16,56,185,,18,42,099,36,19,47,276,21*7B
$GPGSV,3,3,12,21,34,065,33,22,33,144,27,27,80,271,19,30,16,328,17*73
$GPGLL,5556.38209,N,00313.10180,W,225747.00,A,A*70
$GPRMC,225748.00,A,5556.38208,N,00313.10177,W,0.152,,070415,,,A*6E
$GPVTG,,T,,M,0.152,N,0.282,K,A*2D
$GPGGA,225748.00,5556.38208,N,00313.10177,W,1,05,1.69,92.4,M,49.8,M,,*72
$GPGSA,A,3,27,21,18,22,19,,,,,,,,3.95,1.69,3.57*05
$GPGSV,3,1,12,04,09,230,,07,25,298,,11,01,248,,13,09,015,*77
$GPGSV,3,2,12,15,09,048,19,16,56,185,,18,42,099,39,19,47,276,22*77
$GPGSV,3,3,12,21,34,065,34,22,33,144,27,27,80,271,21,30,16,328,19*71
$GPGLL,5556.38208,N,00313.10177,W,225748.00,A,A*76
$GPRMC,225749.00,A,5556.38203,N,00313.10167,W,0.185,,070415,,,A*6F
$GPVTG,,T,,M,0.185,N,0.342,K,A*2A
$GPGGA,225749.00,5556.38203,N,00313.10167,W,1,05,1.69,91.3,M,49.8,M,,*7D
$GPGSA,A,3,27,21,18,22,19,,,,,,,,3.95,1.69,3.57*05
$GPGSV,3,1,12,04,09,230,,07,25,298,,11,01,248,,13,09,015,*77
$GPGSV,3,2,12,15,09,048,19,16,56,185,,18,42,099,36,19,47,276,22*78
$GPGSV,3,3,12,21,34,065,34,22,33,144,26,27,80,271,20,30,16,328,19*71
$GPGLL,5556.38203,N,00313.10167,W,225749.00,A,A*7D
$GPRMC,225750.00,A,5556.38201,N,00313.10199,W,0.116,,070415,,,A*6E
$GPVTG,,T,,M,0.116,N,0.214,K,A*22
$GPGGA,225750.00,5556.38201,N,00313.10199,W,1,05,1.69,90.4,M,49.8,M,,*70
$GPGSA,A,3,27,21,18,22,19,,,,,,,,3.95,1.69,3.57*05
$GPGSV,3,1,12,04,09,230,,07,25,298,,11,01,248,,13,09,015,*77
$GPGSV,3,2,12,15,09,048,18,16,56,185,,18,42,099,37,19,47,276,22*78
$GPGSV,3,3,12,21,34,065,34,22,33,144,27,27,80,271,21,30,16,328,19*71
$GPGLL,5556.38201,N,00313.10199,W,225750.00,A,A*76
$GPRMC,225751.00,A,5556.38196,N,00313.10203,W,0.068,,070415,,,A*6A
$GPVTG,,T,,M,0.068,N,0.126,K,A*28
$GPGGA,225751.00,5556.38196,N,00313.10203,W,1,05,1.69,89.3,M,49.8,M,,*73
$GPGSA,A,3,27,21,18,22,19,,,,,,,,3.95,1.69,3.57*05
$GPGSV,3,1,12,04,09,230,,07,25,298,,11,01,248,,13,09,015,*77
$GPGSV,3,2,12,15,09,048,18,16,56,185,,18,42,099,37,19,47,276,23*79
$GPGSV,3,3,12,21,34,065,33,22,33,144,27,27,80,271,20,30,16,328,18*76
$GPGLL,5556.38196,N,00313.10203,W,225751.00,A,A*7A
$GPRMC,225752.00,A,5556.38191,N,00313.10184,W,0.292,,070415,,,A*65
$GPVTG,,T,,M,0.292,N,0.541,K,A*2A
$GPGGA,225752.00,5556.38191,N,00313.10184,W,1,05,1.69,88.2,M,49.8,M,,*7B
$GPGSA,A,3,27,21,18,22,19,,,,,,,,3.95,1.69,3.57*05
$GPGSV,3,1,12,04,09,230,,07,25,298,,11,01,248,,13,09,015,*77
$GPGSV,3,2,12,15,09,048,17,16,56,185,,18,42,099,36,19,47,276,23*77
$GPGSV,3,3,12,21,34,065,32,22,33,144,26,27,80,271,20,30,16,328,19*77
$GPGLL,5556.38191,N,00313.10184,W,225752.00,A,A*72
$GPRMC,225753.00,A,5556.38187,N,00313.10156,W,0.436,,070415,,,A*64
$GPVTG,,T,,M,0.436,N,0.807,K,A*2D
$GPGGA,225753.00,5556.38187,N,00313.10156,W,1,05,1.69,87.2,M,49.8,M,,*7D
$GPGSA,A,3,27,21,18,22,19,,,,,,,,3.95,1.69,3.57*05
$GPGSV,3,1,12,04,09,230,,07,25,298,,11,01,248,,13,09,015,*77
$GPGSV,3,2,12,15,09,048,17,16,56,185,,18,42,099,35,19,47,276,23*74
$GPGSV,3,3,12,21,34,065,32,22,33,144,25,27,80,271,20,30,16,328,19*74
$GPGLL,5556.38187,N,00313.10156,W,225753.00,A,A*7B
$GPRMC,225754.00,A,5556.38184,N,00313.10133,W,0.563,,070415,,,A*62
$GPVTG,,T,,M,0.563,N,1.043,K,A*25
$GPGGA,225754.00,5556.38184,N,00313.10133,W,1,07,1.69,86.2,M,49.8,M,,*79
$GPGSA,A,3,27,16,21,18,22,19,04,,,,,,3.95,1.69,3.57*06
$GPGSV,3,1,12,04,09,230,14,07,25,298,,11,01,248,,13,09,015,*72
$GPGSV,3,2,12,15,09,048,16,16,56,185,12,18,42,099,34,19,47,276,22*76
$GPGSV,3,3,12,21,34,065,31,22,33,144,25,27,80,271,20,30,16,328,18*76
$GPGLL,5556.38184,N,00313.10133,W,225754.00,A,A*7C
$GPRMC,225755.00,A,5556.38174,N,00313.10094,W,0.677,,070415,,,A*66
$GPVTG,,T,,M,0.677,N,1.253,K,A*20
$GPGGA,225755.00,5556.38174,N,00313.10094,W,1,07,1.69,85.3,M,49.8,M,,*79
$GPGSA,A,3,27,16,21,18,22,19,04,,,,,,3.95,1.69,3.57*06
$GPGSV,3,1,12,04,09,230,14,07,25,298,,11,01,248,,13,09,015,*72
$GPGSV,3,2,12,15,09,048,15,16,56,185,12,18,42,099,38,19,47,276,23*78
$GPGSV,3,3,12,21,34,065,34,22,33,144,25,27,80,271,20,30,16,328,18*73
$GPGLL,5556.38174,N,00313.10094,W,225755.00,A,A*7E
$GPRMC,225756.00,A,5556.38170,N,00313.10098,W,0.233,,070415,,,A*69
$GPVTG,,T,,M,0.233,N,0.432,K,A*24
$GPGGA,225756.00,5556.38170,N,00313.10098,W,1,06,1.69,84.5,M,49.8,M,,*74
$GPGSA,A,3,27,21,18,22,19,04,,,,,,,3.95,1.69,3.57*01
$GPGSV,3,1,12,04,09,230,14,07,25,298,,11,01,248,,13,09,015,*72
$GPGSV,3,2,12,15,09,048,17,16,56,185,12,18,42,099,36,19,47,276,25*72
$GPGSV,3,3,12,21,34,065,34,22,33,144,25,27,80,271,21,30,16,328,18*72
$GPGLL,5556.38170,N,00313.10098,W,225756.00,A,A*75
$GPRMC,225757.00,A,5556.38165,N,00313.10104,W,0.163,,070415,,,A*6E
$GPVTG,,T,,M,0.163,N,0.303,K,A*27
$GPGGA,225757.00,5556.38165,N,00313.10104,W,1,06,1.69,83.8,M,49.8,M,,*7F
$GPGSA,A,3,27,21,18,22,19,04,,,,,,,3.95,1.69,3.57*01
$GPGSV,3,1,12,04,09,230,13,07,25,298,,11,01,248,,13,09,015,*75
$GPGSV,3,2,12,15,09,048,17,16,56,185,12,18,42,099,36,19,47,276,25*72
$GPGSV,3,3,12,21,34,065,33,22,33,144,25,27,80,271,22,30,16,328,19*77
$GPGLL,5556.38165,N,00313.10104,W,225757.00,A,A*74
$GPRMC,225758.00,A,5556.38176,N,00313.10031,W,0.191,,070415,,,A*69
$GPVTG,,T,,M,0.191,N,0.355,K,A*29
$GPGGA,225758.00,5556.38176,N,00313.10031,W,1,07,1.30,85.1,M,49.8,M,,*77
$GPGSA,A,3,27,16,21,18,22,19,04,,,,,,2.14,1.30,1.69*0D
$GPGSV,3,1,12,04,09,230,14,07,25,298,,11,01,248,,13,09,015,*72
$GPGSV,3,2,12,15,09,048,17,16,56,185,15,18,42,099,36,19,47,276,26*76
$GPGSV,3,3,12,21,34,065,33,22,33,144,25,27,80,271,22,30,16,328,19*77
$GPGLL,5556.38176,N,00313.10031,W,225758.00,A,A*7E
$GPRMC,225759.00,A,5556.38190,N,00313.09963,W,0.075,,070415,,,A*6D
$GPVTG,,T,,M,0.075,N,0.139,K,A*2A
$GPGGA,225759.00,5556.38190,N,00313.09963,W,1,07,1.30,86.5,M,49.8,M,,*7F
$GPGSA,A,3,27,16,21,18,22,19,04,,,,,,2.14,1.30,1.69*0D
$GPGSV,3,1,12,04,09,230,15,07,25,298,,11,01,248,,13,09,015,*73
$GPGSV,3,2,12,15,09,048,17,16,56,185,15,18,42,099,36,19,47,276,26*76
$GPGSV,3,3,12,21,34,065,33,22,33,144,24,27,80,271,21,30,16,328,19*75
$GPGLL,5556.38190,N,00313.09963,W,225759.00,A,A*71
$GPRMC,225800.00,A,5556.38204,N,00313.09894,W,0.329,,070415,,,A*63
$GPVTG,,T,,M,0.329,N,0.610,K,A*2C
$GPGGA,225800.00,5556.38204,N,00313.09894,W,1,07,1.30,87.7,M,49.8,M,,*78
$GPGSA,A,3,27,16,21,18,22,19,04,,,,,,2.14,1.30,1.69*0D
$GPGSV,3,1,12,04,09,230,14,07,25,298,,11,01,248,,13,09,015,*72
$GPGSV,3,2,12,15,09,048,15,16,56,185,16,18,42,099,34,19,47,276,25*76
$GPGSV,3,3,12,21,34,065,33,22,33,144,24,27,80,271,22,30,16,328,18*77
$GPGLL,5556.38204,N,00313.09894,W,225800.00,A,A*75
$GPRMC,225801.00,A,5556.38216,N,00313.09833,W,0.243,,070415,,,A*61
$GPVTG,,T,,M,0.243,N,0.450,K,A*27
$GPGGA,225801.00,5556.38216,N,00313.09833,W,1,07,1.30,89.0,M,49.8,M,,*7E
$GPGSA,A,3,27,16,21,18,22,19,04,,,,,,2.14,1.30,1.69*0D
$GPGSV,3,1,12,04,09,230,15,07,25,298,,11,01,248,,13,09,015,*73
$GPGSV,3,2,12,15,09,048,15,16,56,185,17,18,42,099,35,19,47,276,26*75
$GPGSV,3,3,12,21,34,065,33,22,33,144,24,27,80,271,22,30,16,328,18*77
$GPGLL,5556.38216,N,00313.09833,W,225801.00,A,A*7A
$GPRMC,225802.00,A,5556.38228,N,00313.09785,W,0.033,,070415,,,A*68
$GPVTG,,T,,M,0.033,N,0.062,K,A*27
$GPGGA,225802.00,5556.38228,N,00313.09785,W,1,07,1.30,90.3,M,49.8,M,,*79
$GPGSA,A,3,27,16,21,18,22,19,04,,,,,,2.14,1.30,1.69*0D
$GPGSV,3,1,12,04,09,230,15,07,25,298,,11,01,248,,13,09,015,*73
$GPGSV,3,2,12,15,09,048,14,16,56,185,17,18,42,099,35,19,47,276,26*74
$GPGSV,3,3,12,21,34,065,33,22,33,144,23,27,80,271,22,30,16,328,19*71
$GPGLL,5556.38228,N,00313.09785,W,225802.00,A,A*76
$GPRMC,225803.00,A,5556.38243,N,00313.09742,W,0.198,,070415,,,A*6F
$GPVTG,,T,,M,0.198,N,0.368,K,A*2E
$GPGGA,225803.00,5556.38243,N,00313.09742,W,1,07,1.30,91.5,M,49.8,M,,*79
$GPGSA,A,3,27,16,21,18,22,19,04,,,,,,2.14,1.30,1.69*0D
$GPGSV,3,1,12,04,09,230,13,07,25,298,,11,01,248,,13,09,015,*75
$GPGSV,3,2,12,15,09,048,13,16,56,185,16,18,42,099,34,19,47,276,26*73
$GPGSV,3,3,12,21,34,065,32,22,33,144,22,27,80,271,21,30,16,328,19*72
$GPGLL,5556.38243,N,00313.09742,W,225803.00,A,A*71
$GPRMC,225804.00,A,5556.38255,N,00313.09706,W,0.345,,070415,,,A*6D
$GPVTG,,T,,M,0.345,N,0.639,K,A*2D
$GPGGA,225804.00,5556.38255,N,00313.09706,W,1,07,1.30,92.5,M,49.8,M,,*7A
$GPGSA,A,3,27,16,21,18,22,19,04,,,,,,2.14,1.30,1.69*0D
$GPGSV,3,1,12,04,09,230,12,07,25,298,,11,01,248,,13,09,015,*74
$GPGSV,3,2,12,15,09,048,13,16,56,185,15,18,42,099,34,19,47,276,26*70
$GPGSV,3,3,12,21,34,065,32,22,33,144,21,27,80,271,21,30,16,328,18*70
$GPGLL,5556.38255,N,00313.09706,W,225804.00,A,A*71
$GPRMC,225805.00,A,5556.38267,N,00313.09679,W,0.232,,070415,,,A*65
$GPVTG,,T,,M,0.232,N,0.429,K,A*2F
$GPGGA,225805.00,5556.38267,N,00313.09679,W,1,07,1.30,93.0,M,49.8,M,,*77
$GPGSA,A,3,27,16,21,18,22,19,04,,,,,,2.14,1.30,1.69*0D
$GPGSV,3,1,12,04,09,230,12,07,25,298,,11,01,248,,13,09,015,*74
$GPGSV,3,2,12,15,09,048,12,16,56,185,16,18,42,099,34,19,47,276,26*72
$GPGSV,3,3,12,21,34,065,32,22,33,144,21,27,80,271,21,30,16,328,18*70
$GPGLL,5556.38267,N,00313.09679,W,225805.00,A,A*78
$GPRMC,225806.00,A,5556.38270,N,00313.09645,W,0.069,,070415,,,A*63
$GPVTG,,T,,M,0.069,N,0.128,K,A*27
$GPGGA,225806.00,5556.38270,N,00313.09645,W,1,07,1.30,93.8,M,49.8,M,,*75
$GPGSA,A,3,27,16,21,18,22,19,04,,,,,,2.14,1.30,1.69*0D
$GPGSV,3,1,12,04,09,230,14,07,25,298,,11,01,248,,13,09,015,*72
$GPGSV,3,2,12,15,09,048,11,16,56,185,16,18,42,099,35,19,47,276,26*70
$GPGSV,3,3,12,21,34,065,33,22,33,144,20,27,80,271,21,30,16,328,18*70
$GPGLL,5556.38270,N,00313.09645,W,225806.00,A,A*72
$GPRMC,225807.00,A,5556.38282,N,00313.09608,W,0.192,,070415,,,A*63
$GPVTG,,T,,M,0.192,N,0.355,K,A*2A
$GPGGA,225807.00,5556.38282,N,00313.09608,W,1,07,1.30,94.8,M,49.8,M,,*77
$GPGSA,A,3,27,16,21,18,22,19,04,,,,,,2.14,1.30,1.69*0D
$GPGSV,3,1,12,04,09,230,15,07,25,298,,11,01,248,,13,09,015,*73
$GPGSV,3,2,12,15,09,048,11,16,56,185,17,18,42,099,35,19,47,276,26*71
$GPGSV,3,3,12,21,34,065,33,22,33,144,20,27,80,271,22,30,16,328,18*73
$GPGLL,5556.38282,N,00313.09608,W,225807.00,A,A*77
$GPRMC,225808.00,A,5556.38288,N,00313.09595,W,0.054,,070415,,,A*6A
$GPVTG,,T,,M,0.054,N,0.100,K,A*23
$GPGGA,225808.00,5556.38288,N,00313.09595,W,1,07,1.30,95.8,M,49.8,M,,*74
$GPGSA,A,3,27,16,21,18,22,19,04,,,,,,2.14,1.30,1.69*0D
$GPGSV,3,1,12,04,09,230,16,07,25,298,,11,01,248,,13,09,015,*70
$GPGSV,3,2,12,15,09,048,10,16,56,185,18,18,42,099,35,19,47,276,27*7E
$GPGSV,3,3,12,21,34,065,34,22,33,144,21,27,80,271,22,30,16,328,19*74
$GPGLL,5556.38288,N,00313.09595,W,225808.00,A,A*75
$GPRMC,225809.00,A,5556.38303,N,00313.09578,W,0.208,,070415,,,A*61
$GPVTG,,T,,M,0.208,N,0.384,K,A*26
$GPGGA,225809.00,5556.38303,N,00313.09578,W,1,07,1.30,97.1,M,49.8,M,,*7F
$GPGSA,A,3,27,16,21,18,22,19,04,,,,,,2.14,1.30,1.69*0D
$GPGSV,3,1,12,04,09,230,16,07,25,298,,11,01,248,,13,09,015,*70
$GPGSV,3,2,12,15,09,048,12,16,56,185,19,18,42,099,35,19,47,276,27*7D
$GPGSV,3,3,12,21,34,065,34,22,33,144,21,27,80,271,22,30,16,328,20*7E
$GPGLL,5556.38303,N,00313.09578,W,225809.00,A,A*75
$GPRMC,225810.00,A,5556.38303,N,00313.09555,W,0.286,,070415,,,A*60
$GPVTG,,T,,M,0.286,N,0.529,K,A*21
$GPGGA,225810.00,5556.38303,N,00313.09555,W,1,07,1.30,98.0,M,49.8,M,,*76
$GPGSA,A,3,27,16,21,18,22,19,04,,,,,,2.14,1.30,1.69*0D
$GPGSV,3,1,12,04,09,230,14,07,25,298,,11,01,248,,13,09,015,*72
$GPGSV,3,2,12,15,09,048,12,16,56,185,19,18,42,099,33,19,47,276,27*7B
$GPGSV,3,3,12,21,34,065,33,22,33,144,20,27,80,271,21,30,16,328,20*7B
$GPGLL,5556.38303,N,00313.09555,W,225810.00,A,A*72
$GPRMC,225811.00,A,5556.38310,N,00313.09540,W,0.180,,070415,,,A*62
$GPVTG,,T,,M,0.180,N,0.334,K,A*2E
$GPGGA,225811.00,5556.38310,N,00313.09540,W,1,07,1.30,98.7,M,49.8,M,,*76
$GPGSA,A,3,27,16,21,18,22,19,04,,,,,,2.14,1.30,1.69*0D
$GPGSV,3,1,12,04,09,230,13,07,25,298,,11,01,248,,13,09,015,*75
$GPGSV,3,2,12,15,09,048,10,16,56,185,19,18,42,099,33,19,47,276,26*78
$GPGSV,3,3,12,21,34,065,32,22,33,144,19,27,80,271,20,30,16,328,18*7A
$GPGLL,5556.38310,N,00313.09540,W,225811.00,A,A*75
$GPRMC,225812.00,A,5556.38302,N,00313.09547,W,0.185,,070415,,,A*60
$GPVTG,,T,,M,0.185,N,0.343,K,A*2B
$GPGGA,225812.00,5556.38302,N,00313.09547,W,1,07,1.30,99.5,M,49.8,M,,*72
$GPGSA,A,3,27,16,21,18,22,19,04,,,,,,2.14,1.30,1.69*0D
$GPGSV,3,1,12,04,09,230,14,07,25,298,,11,01,248,,13,09,015,*72
$GPGSV,3,2,12,15,09,048,10,16,56,185,20,18,42,099,36,19,47,276,27*76
$GPGSV,3,3,12,21,34,065,35,22,33,144,19,27,80,271,21,30,16,328,18*7C
$GPGLL,5556.38302,N,00313.09547,W,225812.00,A,A*72
$GPRMC,225813.00,A,5556.38297,N,00313.09556,W,0.255,,070415,,,A*62
$GPVTG,,T,,M,0.255,N,0.472,K,A*20
$GPGGA,225813.00,5556.38297,N,00313.09556,W,1,07,1.30,100.0,M,49.8,M,,*4A
$GPGSA,A,3,27,16,21,18,22,19,04,,,,,,2.14,1.30,1.69*0D
$GPGSV,3,1,12,04,09,230,16,07,25,298,,11,01,248,,13,09,015,*70
$GPGSV,3,2,12,15,09,048,10,16,56,185,21,18,42,099,35,19,47,276,27*74
$GPGSV,3,3,12,21,34,065,32,22,33,144,19,27,80,271,20,30,16,328,18*7A
$GPGLL,5556.38297,N,00313.09556,W,225813.00,A,A*7E
$GPRMC,225814.00,A,5556.38295,N,00313.09569,W,0.400,,070415,,,A*6D
$GPVTG,,T,,M,0.400,N,0.740,K,A*24
$GPGGA,225814.00,5556.38295,N,00313.09569,W,1,07,1.30,100.9,M,49.8,M,,*4A
$GPGSA,A,3,27,16,21,18,22,19,04,,,,,,2.14,1.30,1.69*0D
$GPGSV,3,1,12,04,09,230,17,07,25,298,19,11,01,248,,13,09,015,*79
$GPGSV,3,2,12,15,09,048,12,16,56,185,23,18,42,099,35,19,47,276,27*74
$GPGSV,3,3,12,21,34,065,34,22,33,144,19,27,80,271,19,30,16,328,18*76
$GPGLL,5556.38295,N,00313.09569,W,225814.00,A,A*77
$GPRMC,225815.00,A,5556.38308,N,00313.09557,W,0.095,,070415,,,A*6C
$GPVTG,,T,,M,0.095,N,0.176,K,A*2F
$GPGGA,225815.00,5556.38308,N,00313.09557,W,1,07,1.30,101.9,M,49.8,M,,*42
$GPGSA,A,3,27,16,21,18,22,19,04,,,,,,2.14,1.30,1.69*0D
$GPGSV,3,1,12,04,09,230,17,07,25,298,18,11,01,248,,13,09,015,*78
$GPGSV,3,2,12,15,09,048,12,16,56,185,23,18,42,099,34,19,47,276,27*75
$GPGSV,3,3,12,21,34,065,33,22,33,144,18,27,80,271,18,30,16,328,18*71
$GPGLL,5556.38308,N,00313.09557,W,225815.00,A,A*7E
$GPRMC,225816.00,A,5556.38325,N,00313.09512,W,0.457,,070415,,,A*6B
$GPVTG,,T,,M,0.457,N,0.846,K,A*2F
$GPGGA,225816.00,5556.38325,N,00313.09512,W,1,07,1.30,103.1,M,49.8,M,,*45
$GPGSA,A,3,27,16,21,18,22,19,04,,,,,,2.14,1.30,1.69*0D
$GPGSV,3,1,12,04,09,230,17,07,25,298,15,11,01,248,,13,09,015,*75
$GPGSV,3,2,12,15,09,048,14,16,56,185,23,18,42,099,33,19,47,276,26*75
$GPGSV,3,3,12,21,34,065,32,22,33,144,17,27,80,271,16,30,16,328,17*7E
$GPGLL,5556.38325,N,00313.09512,W,225816.00,A,A*73
$GPRMC,225817.00,A,5556.38329,N,00313.09507,W,0.156,,070415,,,A*66
$GPVTG,,T,,M,0.156,N,0.289,K,A*22
$GPGGA,225817.00,5556.38329,N,00313.09507,W,1,07,1.30,104.0,M,49.8,M,,*4A
$GPGSA,A,3,27,16,21,18,22,19,04,,,,,,2.14,1.30,1.69*0D
$GPGSV,3,1,12,04,09,230,16,07,25,298,13,11,01,248,,13,09,015,*72
$GPGSV,3,2,12,15,09,048,13,16,56,185,22,18,42,099,33,19,47,276,25*70
$GPGSV,3,3,12,21,34,065,32,22,33,144,17,27,80,271,15,30,16,328,16*7C
$GPGLL,5556.38329,N,00313.09507,W,225817.00,A,A*7A
$GPRMC,225818.00,A,5556.38342,N,00313.09491,W,0.226,,070415,,,A*6E
$GPVTG,,T,,M,0.226,N,0.418,K,A*28
$GPGGA,225818.00,5556.38342,N,00313.09491,W,1,07,1.30,104.9,M,49.8,M,,*4F
$GPGSA,A,3,27,16,21,18,22,19,04,,,,,,2.14,1.30,1.69*0D
$GPGSV,3,1,12,04,09,230,17,07,25,298,15,11,01,248,,13,09,015,*75
$GPGSV,3,2,12,15,09,048,14,16,56,185,22,18,42,099,34,19,47,276,26*73
$GPGSV,3,3,12,21,34,065,34,22,33,144,17,27,80,271,16,30,16,328,17*78
$GPGLL,5556.38342,N,00313.09491,W,225818.00,A,A*76
$GPRMC,225819.00,A,5556.38350,N,00313.09479,W,0.204,,070415,,,A*6A
$GPVTG,,T,,M,0.204,N,0.378,K,A*29
$GPGGA,225819.00,5556.38350,N,00313.09479,W,1,07,1.30,105.5,M,49.8,M,,*46
$GPGSA,A,3,27,16,21,18,22,19,04,,,,,,2.14,1.30,1.69*0D
$GPGSV,3,1,12,04,09,230,18,07,25,298,15,11,01,248,,13,09,015,*7A
$GPGSV,3,2,12,15,09,048,15,16,56,185,24,18,42,099,35,19,47,276,27*74
$GPGSV,3,3,12,21,34,065,34,22,33,144,18,27,80,271,17,30,16,328,18*79
$GPGLL,5556.38350,N,00313.09479,W,225819.00,A,A*72
$GPRMC,225820.00,A,5556.38362,N,00313.09465,W,0.186,,070415,,,A*65
$GPVTG,,T,,M,0.186,N,0.344,K,A*2F
$GPGGA,225820.00,5556.38362,N,00313.09465,W,1,07,1.30,106.5,M,49.8,M,,*43
$GPGSA,A,3,27,16,21,18,22,19,04,,,,,,2.14,1.30,1.69*0D
$GPGSV,3,1,12,04,09,230,19,07,25,298,16,11,01,248,,13,09,015,*78
$GPGSV,3,2,12,15,09,048,16,16,56,185,25,18,42,099,35,19,47,276,27*76
$GPGSV,3,3,12,21,34,065,34,22,33,144,18,27,80,271,16,30,16,328,18*78
$GPGLL,5556.38362,N,00313.09465,W,225820.00,A,A*74
$GPRMC,225821.00,A,5556.38370,N,00313.09469,W,0.132,,070415,,,A*64
$GPVTG,,T,,M,0.132,N,0.245,K,A*20
$GPGGA,225821.00,5556.38370,N,00313.09469,W,1,07,1.30,107.2,M,49.8,M,,*4B
$GPGSA,A,3,27,16,21,18,22,19,04,,,,,,2.14,1.30,1.70*05
$GPGSV,3,1,12,04,09,230,19,07,25,298,17,11,01,248,,13,09,015,*79
$GPGSV,3,2,12,15,09,048,18,16,56,185,25,18,42,099,35,19,47,276,27*78
$GPGSV,3,3,12,21,34,065,34,22,33,144,16,27,80,271,15,30,16,328,19*74
$GPGLL,5556.38370,N,00313.09469,W,225821.00,A,A*7A
$GPRMC,225822.00,A,5556.38374,N,00313.09466,W,0.043,,070415,,,A*6B
$GPVTG,,T,,M,0.043,N,0.081,K,A*2D
$GPGGA,225822.00,5556.38374,N,00313.09466,W,1,07,1.30,107.8,M,49.8,M,,*49
$GPGSA,A,3,27,16,21,18,22,19,04,,,,,,2.14,1.30,1.70*05
$GPGSV,3,1,12,04,09,230,18,07,25,298,17,11,01,248,,13,09,015,*78
$GPGSV,3,2,12,15,09,048,18,16,56,185,25,18,42,099,34,19,47,276,27*79
$GPGSV,3,3,12,21,34,065,33,22,33,144,16,27,80,271,13,30,16,328,18*74
$GPGLL,5556.38374,N,00313.09466,W,225822.00,A,A*72
$GPRMC,225823.00,A,5556.38377,N,00313.09467,W,0.177,,070415,,,A*6E
$GPVTG,,T,,M,0.177,N,0.327,K,A*24
$GPGGA,225823.00,5556.38377,N,00313.09467,W,1,07,1.30,108.2,M,49.8,M,,*4F
$GPGSA,A,3,27,16,21,18,22,19,04,,,,,,2.14,1.30,1.70*05
$GPGSV,3,1,12,04,09,230,18,07,25,298,17,11,01,248,,13,09,015,*78
$GPGSV,3,2,12,15,09,048,17,16,56,185,25,18,42,099,34,19,47,276,26*77
$GPGSV,3,3,12,21,34,065,33,22,33,144,14,27,80,271,10,30,16,328,18*75
$GPGLL,5556.38377,N,00313.09467,W,225823.00,A,A*71
$GPRMC,225824.00,A,5556.38384,N,00313.09472,W,0.044,,070415,,,A*60
$GPVTG,,T,,M,0.044,N,0.081,K,A*2A
$GPGGA,225824.00,5556.38384,N,00313.09472,W,1,07,1.30,108.7,M,49.8,M,,*45
$GPGSA,A,3,27,16,21,18,22,19,04,,,,,,2.14,1.30,1.70*05
$GPGSV,3,1,12,04,09,230,17,07,25,298,17,11,01,248,,13,09,015,*77
$GPGSV,3,2,12,15,09,048,18,16,56,185,25,18,42,099,34,19,47,276,27*79
$GPGSV,3,3,12,21,34,065,34,22,33,144,14,27,80,271,11,30,16,328,19*72
$GPGLL,5556.38384,N,00313.09472,W,225824.00,A,A*7E
$GPRMC,225825.00,A,5556.38387,N,00313.09485,W,0.027,,070415,,,A*6F
$GPVTG,,T,,M,0.027,N,0.050,K,A*23
$GPGGA,225825.00,5556.38387,N,00313.09485,W,1,07,1.30,109.1,M,49.8,M,,*48
$GPGSA,A,3,27,16,21,18,22,19,04,,,,,,2.14,1.30,1.70*05
$GPGSV,3,1,12,04,09,230,17,07,25,298,16,11,01,248,,13,09,015,*76
$GPGSV,3,2,12,15,09,048,18,16,56,185,24,18,42,099,34,19,47,276,26*79
$GPGSV,3,3,12,21,34,065,34,22,33,144,13,27,80,271,12,30,16,328,17*78
$GPGLL,5556.38387,N,00313.09485,W,225825.00,A,A*74
$GPRMC,225826.00,A,5556.38383,N,00313.09493,W,0.194,,070415,,,A*66
$GPVTG,,T,,M,0.194,N,0.358,K,A*21
$GPGGA,225826.00,5556.38383,N,00313.09493,W,1,07,1.30,109.2,M,49.8,M,,*4B
$GPGSA,A,3,27,16,21,18,22,19,04,,,,,,2.14,1.30,1.70*05
$GPGSV,3,1,12,04,09,230,17,07,25,298,17,11,01,248,,13,09,015,*77
$GPGSV,3,2,12,15,09,048,19,16,56,185,25,18,42,099,34,19,47,276,26*79
$GPGSV,3,3,12,21,34,065,34,22,33,144,14,27,80,271,12,30,16,328,18*70
$GPGLL,5556.38383,N,00313.09493,W,225826.00,A,A*74
$GPRMC,225827.00,A,5556.38394,N,00313.09494,W,0.228,,070415,,,A*62
$GPVTG,,T,,M,0.228,N,0.422,K,A*2F
$GPGGA,225827.00,5556.38394,N,00313.09494,W,1,07,1.33,110.2,M,49.8,M,,*40
$GPGSA,A,3,27,16,21,18,22,19,04,,,,,,2.47,1.33,2.08*0C
$GPGSV,3,1,12,04,09,230,17,07,25,298,16,11,01,248,,13,09,015,20*74
$GPGSV,3,2,12,15,09,048,20,16,56,185,25,18,42,099,35,19,47,276,26*72
$GPGSV,3,3,12,21,34,065,34,22,33,144,14,27,80,271,12,30,16,328,18*70
$GPGLL,5556.38394,N,00313.09494,W,225827.00,A,A*74
$GPRMC,225828.00,A,5556.38406,N,00313.09495,W,0.202,,070415,,,A*68
$GPVTG,,T,,M,0.202,N,0.373,K,A*24
$GPGGA,225828.00,5556.38406,N,00313.09495,W,1,06,1.33,111.1,M,49.8,M,,*41
$GPGSA,A,3,16,21,18,22,19,04,,,,,,,2.47,1.33,2.08*09
$GPGSV,3,1,12,04,09,230,17,07,25,298,15,11,01,248,,13,09,015,17*73
$GPGSV,3,2,12,15,09,048,21,16,56,185,25,18,42,099,35,19,47,276,26*73
$GPGSV,3,3,12,21,34,065,34,22,33,144,14,27,80,271,,30,16,328,18*73
$GPGLL,5556.38406,N,00313.09495,W,225828.00,A,A*76
$GPRMC,225829.00,A,5556.38413,N,00313.09498,W,0.249,,070415,,,A*6F
$GPVTG,,T,,M,0.249,N,0.461,K,A*2F
$GPGGA,225829.00,5556.38413,N,00313.09498,W,1,07,1.33,112.1,M,49.8,M,,*4B
$GPGSA,A,3,27,16,21,18,22,19,04,,,,,,2.47,1.33,2.08*0C
$GPGSV,3,1,12,04,10,231,18,07,25,298,16,11,01,248,,13,09,015,15*74
$GPGSV,3,2,12,15,09,048,21,16,56,185,25,18,42,099,35,19,47,276,26*73
$GPGSV,3,3,12,21,34,065,34,22,33,144,12,27,80,271,15,30,16,328,19*70
$GPGLL,5556.38413,N,00313.09498,W,225829.00,A,A*7E
$GPRMC,225830.00,A,5556.38425,N,00313.09500,W,0.152,,070415,,,A*6B
$GPVTG,,T,,M,0.152,N,0.282,K,A*2D
$GPGGA,225830.00,5556.38425,N,00313.09500,W,1,06,1.64,113.4,M,49.8,M,,*41
$GPGSA,A,3,27,16,21,18,19,04,,,,,,,2.65,1.64,2.08*0E
$GPGSV,3,1,12,04,10,231,18,07,25,298,16,11,01,248,,13,09,015,09*79
$GPGSV,3,2,12,15,09,048,21,16,56,185,25,18,42,099,36,19,47,276,27*71
$GPGSV,3,3,12,21,34,065,34,22,33,144,,27,80,271,13,30,16,328,18*74
$GPGLL,5556.38425,N,00313.09500,W,225830.00,A,A*73
$GPRMC,225831.00,A,5556.38439,N,00313.09511,W,0.180,,070415,,,A*68
$GPVTG,,T,,M,0.180,N,0.333,K,A*29
$GPGGA,225831.00,5556.38439,N,00313.09511,W,1,06,1.64,114.4,M,49.8,M,,*4A
$GPGSA,A,3,16,21,18,22,19,04,,,,,,,2.65,1.64,2.08*0B
$GPGSV,3,1,12,04,10,231,17,07,25,298,15,11,01,248,,13,09,015,07*7B
$GPGSV,3,2,12,15,09,048,22,16,56,185,25,18,42,099,35,19,47,276,26*70
$GPGSV,3,3,12,21,34,065,34,22,33,144,16,27,80,271,09,30,16,328,17*77
$GPGLL,5556.38439,N,00313.09511,W,225831.00,A,A*7F
$GPRMC,225832.00,A,5556.38447,N,00313.09529,W,0.178,,070415,,,A*6E
$GPVTG,,T,,M,0.178,N,0.329,K,A*25
$GPGGA,225832.00,5556.38447,N,00313.09529,W,1,06,1.64,115.3,M,49.8,M,,*4D
$GPGSA,A,3,16,21,18,22,19,04,,,,,,,2.65,1.64,2.08*0B
$GPGSV,3,1,12,04,10,231,17,07,25,297,15,11,01,248,,13,09,015,07*74
$GPGSV,3,2,12,15,09,048,22,16,56,185,25,18,42,099,35,19,47,276,27*71
$GPGSV,3,3,12,21,34,065,34,22,33,144,14,27,80,271,09,30,16,328,17*75
$GPGLL,5556.38447,N,00313.09529,W,225832.00,A,A*7E
$GPRMC,225833.00,A,5556.38462,N,00313.09549,W,0.267,,070415,,,A*63
$GPVTG,,T,,M,0.267,N,0.494,K,A*29
$GPGGA,225833.00,5556.38462,N,00313.09549,W,1,06,1.64,116.1,M,49.8,M,,*4C
$GPGSA,A,3,16,21,18,22,19,04,,,,,,,2.65,1.64,2.08*0B
$GPGSV,3,1,12,04,10,231,16,07,25,297,14,11,01,248,,13,09,015,07*74
$GPGSV,3,2,12,15,09,048,22,16,56,185,25,18,42,099,32,19,47,276,27*76
$GPGSV,3,3,12,21,34,065,31,22,33,144,13,27,80,271,12,30,16,328,17*7D
$GPGLL,5556.38462,N,00313.09549,W,225833.00,A,A*7E
$GPRMC,225834.00,A,5556.38469,N,00313.09543,W,0.217,,070415,,,A*62
$GPVTG,,T,,M,0.217,N,0.401,K,A*22
$GPGGA,225834.00,5556.38469,N,00313.09543,W,1,07,1.61,116.4,M,49.8,M,,*4B
$GPGSA,A,3,27,16,21,18,22,19,04,,,,,,2.34,1.61,1.70*03
$GPGSV,3,1,12,04,10,231,15,07,25,297,14,11,01,248,,13,09,015,08*78
$GPGSV,3,2,12,15,09,048,21,16,56,185,24,18,42,099,31,19,47,276,26*76
$GPGSV,3,3,12,21,34,065,30,22,33,144,10,27,80,271,14,30,16,328,15*7B
$GPGLL,5556.38469,N,00313.09543,W,225834.00,A,A*78
$GPRMC,225835.00,A,5556.38477,N,00313.09530,W,0.206,,070415,,,A*68
$GPVTG,,T,,M,0.206,N,0.381,K,A*2D
$GPGGA,225835.00,5556.38477,N,00313.09530,W,1,06,1.61,116.5,M,49.8,M,,*41
$GPGSA,A,3,27,16,21,18,19,04,,,,,,,2.34,1.61,1.70*03
$GPGSV,3,1,12,04,10,231,15,07,25,297,14,11,01,248,,13,09,015,08*78
$GPGSV,3,2,12,15,09,048,21,16,56,185,24,18,42,099,33,19,47,276,26*74
$GPGSV,3,3,12,21,34,065,32,22,33,144,09,27,80,271,15,30,16,328,15*70
$GPGLL,5556.38477,N,00313.09530,W,225835.00,A,A*72
$GPRMC,225836.00,A,5556.38487,N,00313.09508,W,0.317,,070415,,,A*6E
$GPVTG,,T,,M,0.317,N,0.587,K,A*2C
$GPGGA,225836.00,5556.38487,N,00313.09508,W,1,06,1.61,117.1,M,49.8,M,,*43
$GPGSA,A,3,27,16,21,18,19,04,,,,,,,2.34,1.61,1.70*03
$GPGSV,3,1,12,04,10,231,16,07,25,297,14,11,01,248,,13,09,015,08*7B
$GPGSV,3,2,12,15,09,048,22,16,56,185,25,18,42,099,34,19,47,276,26*71
$GPGSV,3,3,12,21,34,065,33,22,33,144,08,27,80,271,15,30,16,328,16*73
$GPGLL,5556.38487,N,00313.09508,W,225836.00,A,A*75
$GPRMC,225837.00,A,5556.38483,N,00313.09504,W,0.135,,070415,,,A*65
$GPVTG,,T,,M,0.135,N,0.250,K,A*23
$GPGGA,225837.00,5556.38483,N,00313.09504,W,1,06,1.61,117.0,M,49.8,M,,*4B
$GPGSA,A,3,27,16,21,18,19,04,,,,,,,2.34,1.61,1.70*03
$GPGSV,3,1,12,04,10,231,16,07,25,297,15,11,01,248,,13,09,015,08*7A
$GPGSV,3,2,12,15,09,048,22,16,56,185,26,18,42,099,34,19,47,276,26*72
$GPGSV,3,3,12,21,34,065,33,22,33,144,07,27,80,271,16,30,16,328,16*7F
$GPGLL,5556.38483,N,00313.09504,W,225837.00,A,A*7C
$GPRMC,225838.00,A,5556.38479,N,00313.09493,W,0.079,,070415,,,A*69
$GPVTG,,T,,M,0.079,N,0.146,K,A*2E
$GPGGA,225838.00,5556.38479,N,00313.09493,W,1,06,1.61,116.9,M,49.8,M,,*46
$GPGSA,A,3,27,16,21,18,19,04,,,,,,,2.34,1.61,1.70*03
$GPGSV,3,1,12,04,10,231,15,07,25,297,15,11,01,248,,13,09,014,08*78
$GPGSV,3,2,12,15,09,048,22,16,56,185,25,18,42,099,34,19,47,276,26*71
$GPGSV,3,3,12,21,34,065,32,22,33,144,07,27,80,271,17,30,16,328,16*7F
$GPGLL,5556.38479,N,00313.09493,W,225838.00,A,A*79
$GPRMC,225839.00,A,5556.38472,N,00313.09486,W,0.063,,070415,,,A*6C
$GPVTG,,T,,M,0.063,N,0.117,K,A*21
$GPGGA,225839.00,5556.38472,N,00313.09486,W,1,06,1.61,116.9,M,49.8,M,,*48
$GPGSA,A,3,27,16,21,18,19,04,,,,,,,2.34,1.61,1.70*03
$GPGSV,3,1,12,04,10,231,15,07,25,297,14,11,01,248,,13,09,014,*71
$GPGSV,3,2,12,15,09,048,23,16,56,185,25,18,42,099,33,19,47,276,26*77
$GPGSV,3,3,12,21,34,065,32,22,33,144,07,27,80,271,18,30,16,328,14*72
$GPGLL,5556.38472,N,00313.09486,W,225839.00,A,A*77
$GPRMC,225840.00,A,5556.38475,N,00313.09470,W,0.176,,070415,,,A*69
$GPVTG,,T,,M,0.176,N,0.326,K,A*24
$GPGGA,225840.00,5556.38475,N,00313.09470,W,1,06,1.61,116.9,M,49.8,M,,*48
$GPGSA,A,3,27,16,21,18,19,04,,,,,,,2.34,1.61,1.70*03
$GPGSV,3,1,12,04,10,231,15,07,25,297,14,11,01,248,,13,09,014,*71
$GPGSV,3,2,12,15,09,047,22,16,56,185,26,18,42,099,34,19,47,276,27*7C
$GPGSV,3,3,12,21,34,065,33,22,33,144,,27,80,271,19,30,16,328,13*72
$GPGLL,5556.38475,N,00313.09470,W,225840.00,A,A*77
$GPRMC,225841.00,A,5556.38474,N,00313.09458,W,0.118,,070415,,,A*6B
$GPVTG,,T,,M,0.118,N,0.219,K,A*21
$GPGGA,225841.00,5556.38474,N,00313.09458,W,1,06,1.61,116.8,M,49.8,M,,*43
$GPGSA,A,3,27,16,21,18,19,04,,,,,,,2.34,1.61,1.70*03
$GPGSV,3,1,12,04,10,231,14,07,25,297,14,11,01,248,,13,09,014,*70
$GPGSV,3,2,12,15,09,047,23,16,55,185,26,18,42,099,34,19,47,276,27*7E
$GPGSV,3,3,12,21,34,065,33,22,33,144,,27,80,271,21,30,16,328,14*7E
$GPGLL,5556.38474,N,00313.09458,W,225841.00,A,A*7D
$GPRMC,225842.00,A,5556.38484,N,00313.09448,W,0.218,,070415,,,A*65
$GPVTG,,T,,M,0.218,N,0.404,K,A*28
$GPGGA,225842.00,5556.38484,N,00313.09448,W,1,06,1.61,117.0,M,49.8,M,,*47
$GPGSA,A,3,27,16,21,18,19,04,,,,,,,2.34,1.61,1.70*03
$GPGSV,3,1,12,04,10,231,13,07,25,297,14,11,01,248,,13,09,014,*77
$GPGSV,3,2,12,15,09,047,22,16,55,185,25,18,42,099,30,19,47,276,26*79
$GPGSV,3,3,12,21,34,065,29,22,33,144,,27,80,271,20,30,16,328,15*75
$GPGLL,5556.38484,N,00313.09448,W,225842.00,A,A*70
$GPRMC,225843.00,A,5556.38476,N,00313.09436,W,0.367,,070415,,,A*69
$GPVTG,,T,,M,0.367,N,0.679,K,A*29
$GPGGA,225843.00,5556.38476,N,00313.09436,W,1,06,1.61,116.7,M,49.8,M,,*44
$GPGSA,A,3,27,16,21,18,19,04,,,,,,,2.34,1.61,1.70*03
$GPGSV,3,1,12,04,10,231,13,07,25,297,14,11,01,248,,13,09,014,*77
$GPGSV,3,2,12,15,09,047,22,16,55,185,24,18,43,099,33,19,47,276,25*79
$GPGSV,3,3,12,21,34,065,31,22,33,144,,27,80,271,20,30,16,328,13*7A
$GPGLL,5556.38476,N,00313.09436,W,225843.00,A,A*75
$GPRMC,225844.00,A,5556.38480,N,00313.09441,W,0.280,,070415,,,A*6F
$GPVTG,,T,,M,0.280,N,0.519,K,A*24
$GPGGA,225844.00,5556.38480,N,00313.09441,W,1,06,1.61,116.7,M,49.8,M,,*4A
$GPGSA,A,3,27,16,21,18,19,04,,,,,,,2.34,1.61,1.70*03
$GPGSV,3,1,12,04,10,231,16,07,25,297,13,11,01,248,,13,09,014,*75
$GPGSV,3,2,12,15,09,047,22,16,55,185,25,18,43,099,33,19,48,276,26*74
$GPGSV,3,3,12,21,34,065,32,22,33,144,,27,80,271,21,30,16,328,14*7F
$GPGLL,5556.38480,N,00313.09441,W,225844.00,A,A*7B
$GPRMC,225845.00,A,5556.38476,N,00313.09434,W,0.155,,070415,,,A*6E
$GPVTG,,T,,M,0.155,N,0.287,K,A*2F
$GPGGA,225845.00,5556.38476,N,00313.09434,W,1,07,1.60,116.9,M,49.8,M,,*4E
$GPGSA,A,3,27,16,21,18,22,19,04,,,,,,2.34,1.60,1.70*02
$GPGSV,3,1,12,04,10,231,16,07,25,297,14,11,01,248,,13,09,014,18*7B
$GPGSV,3,2,12,15,09,047,23,16,55,185,26,18,43,099,35,19,48,276,27*71
$GPGSV,3,3,12,21,34,065,34,22,33,144,14,27,80,271,23,30,16,328,14*7E
$GPGLL,5556.38476,N,00313.09434,W,225845.00,A,A*71
$GPRMC,225846.00,A,5556.38479,N,00313.09425,W,0.207,,070415,,,A*66
$GPVTG,,T,,M,0.207,N,0.384,K,A*29
$GPGGA,225846.00,5556.38479,N,00313.09425,W,1,07,1.60,117.2,M,49.8,M,,*48
$GPGSA,A,3,27,16,21,18,22,19,04,,,,,,2.34,1.60,1.70*02
$GPGSV,3,1,12,04,10,231,15,07,25,297,14,11,01,248,,13,09,014,17*77
$GPGSV,3,2,12,15,09,047,24,16,55,185,26,18,43,099,34,19,48,276,27*77
$GPGSV,3,3,12,21,33,065,34,22,33,144,15,27,80,271,24,30,16,328,14*7F
$GPGLL,5556.38479,N,00313.09425,W,225846.00,A,A*7D
$GPRMC,225847.00,A,5556.38484,N,00313.09405,W,0.464,,070415,,,A*64
$GPVTG,,T,,M,0.464,N,0.859,K,A*21
$GPGGA,225847.00,5556.38484,N,00313.09405,W,1,07,1.60,117.5,M,49.8,M,,*4E
$GPGSA,A,3,27,16,21,18,22,19,04,,,,,,2.34,1.60,1.70*02
$GPGSV,3,1,12,04,10,231,11,07,25,297,14,11,01,248,,13,09,014,14*70
$GPGSV,3,2,12,15,09,047,22,16,55,185,25,18,43,099,32,19,48,276,26*75
$GPGSV,3,3,12,21,33,065,32,22,33,143,16,27,80,271,23,30,16,328,14*7A
$GPGLL,5556.38484,N,00313.09405,W,225847.00,A,A*7C
$GPRMC,225848.00,A,5556.38494,N,00313.09381,W,0.601,,070415,,,A*60
$GPVTG,,T,,M,0.601,N,1.114,K,A*21
$GPGGA,225848.00,5556.38494,N,00313.09381,W,1,07,1.60,118.1,M,49.8,M,,*40
$GPGSA,A,3,27,16,21,18,22,19,04,,,,,,2.34,1.60,1.70*02
$GPGSV,3,1,12,04,10,231,12,07,25,297,14,11,01,248,,13,09,014,15*72
$GPGSV,3,2,12,15,09,047,23,16,55,185,26,18,43,099,33,19,48,276,26*76
$GPGSV,3,3,12,21,33,065,32,22,33,143,16,27,80,271,24,30,16,328,14*7D
$GPGLL,5556.38494,N,00313.09381,W,225848.00,A,A*79
$GPRMC,225849.00,A,5556.38496,N,00313.09356,W,0.599,,070415,,,A*6B
$GPVTG,,T,,M,0.599,N,1.109,K,A*2F
$GPGGA,225849.00,5556.38496,N,00313.09356,W,1,07,1.30,118.6,M,49.8,M,,*4B
$GPGSA,A,3,27,16,21,18,22,19,04,,,,,,2.14,1.30,1.70*05
$GPGSV,3,1,12,04,10,231,12,07,25,297,14,11,01,248,,13,09,014,14*73
$GPGSV,3,2,12,15,09,047,22,16,55,185,25,18,43,099,33,19,48,276,26*74
$GPGSV,3,3,12,21,33,065,32,22,33,143,16,27,80,271,25,30,16,328,13*7B
$GPGLL,5556.38496,N,00313.09356,W,225849.00,A,A*70
$GPRMC,225850.00,A,5556.38503,N,00313.09328,W,0.590,,070415,,,A*6E
$GPVTG,,T,,M,0.590,N,1.093,K,A*24
$GPGGA,225850.00,5556.38503,N,00313.09328,W,1,07,1.30,119.6,M,49.8,M,,*46
$GPGSA,A,3,27,16,21,18,22,19,04,,,,,,2.14,1.30,1.70*05
$GPGSV,3,1,12,04,10,231,13,07,25,297,12,11,01,248,,13,09,014,13*73
$GPGSV,3,2,12,15,09,047,22,16,55,185,25,18,43,099,34,19,48,276,26*73
$GPGSV,3,3,12,21,33,065,33,22,33,143,18,27,80,271,26,30,16,328,15*71
$GPGLL,5556.38503,N,00313.09328,W,225850.00,A,A*7C
$GPRMC,225851.00,A,5556.38500,N,00313.09321,W,0.296,,070415,,,A*64
$GPVTG,,T,,M,0.296,N,0.549,K,A*26
$GPGGA,225851.00,5556.38500,N,00313.09321,W,1,07,1.30,120.0,M,49.8,M,,*41
$GPGSA,A,3,27,16,21,18,22,19,04,,,,,,2.14,1.30,1.70*05
$GPGSV,3,1,12,04,10,231,14,07,25,297,14,11,01,248,,13,09,014,13*72
$GPGSV,3,2,12,15,09,047,22,16,55,185,26,18,43,099,34,19,48,276,26*70
$GPGSV,3,3,12,21,33,065,33,22,33,143,18,27,80,271,26,30,16,328,16*72
$GPGLL,5556.38500,N,00313.09321,W,225851.00,A,A*77
$GPRMC,225852.00,A,5556.38492,N,00313.09320,W,0.240,,070415,,,A*67
$GPVTG,,T,,M,0.240,N,0.444,K,A*21
$GPGGA,225852.00,5556.38492,N,00313.09320,W,1,07,1.30,120.2,M,49.8,M,,*4B
$GPGSA,A,3,27,16,21,18,22,19,04,,,,,,2.14,1.30,1.70*05
$GPGSV,3,1,12,04,10,231,09,07,25,297,14,11,01,248,,13,09,014,14*79
$GPGSV,3,2,12,15,09,047,22,16,55,185,26,18,43,099,34,19,48,276,26*70
$GPGSV,3,3,12,21,33,065,33,22,33,143,19,27,81,270,25,30,16,328,15*73
$GPGLL,5556.38492,N,00313.09320,W,225852.00,A,A*7F
$GPRMC,225853.00,A,5556.38488,N,00313.09322,W,0.238,,070415,,,A*60
$GPVTG,,T,,M,0.238,N,0.441,K,A*2B
$GPGGA,225853.00,5556.38488,N,00313.09322,W,1,07,1.30,120.4,M,49.8,M,,*45
$GPGSA,A,3,27,16,21,18,22,19,04,,,,,,2.14,1.30,1.70*05
$GPGSV,3,1,12,04,10,231,09,07,25,297,14,11,01,248,,13,09,014,13*7E
$GPGSV,3,2,12,15,09,047,22,16,55,185,26,18,43,099,34,19,48,276,26*70
$GPGSV,3,3,12,21,33,065,32,22,33,143,19,27,81,270,25,30,16,328,15*72
$GPGLL,5556.38488,N,00313.09322,W,225853.00,A,A*77
$GPRMC,225854.00,A,5556.38479,N,00313.09332,W,0.086,,070415,,,A*6F
$GPVTG,,T,,M,0.086,N,0.159,K,A*20
$GPGGA,225854.00,5556.38479,N,00313.09332,W,1,07,1.30,120.4,M,49.8,M,,*4D
$GPGSA,A,3,27,16,21,18,22,19,04,,,,,,2.14,1.30,1.70*05
$GPGSV,3,1,12,04,10,231,09,07,25,297,14,11,01,248,,13,09,014,10*7D
$GPGSV,3,2,12,15,09,047,22,16,55,185,26,18,43,099,35,19,48,276,26*71
$GPGSV,3,3,12,21,33,065,33,22,33,143,20,27,81,270,26,30,16,328,14*7B
$GPGLL,5556.38479,N,00313.09332,W,225854.00,A,A*7F
$GPRMC,225855.00,A,5556.38466,N,00313.09348,W,0.227,,070415,,,A*64
$GPVTG,,T,,M,0.227,N,0.420,K,A*22
$GPGGA,225855.00,5556.38466,N,00313.09348,W,1,07,1.30,120.2,M,49.8,M,,*49
$GPGSA,A,3,27,16,21,18,22,19,04,,,,,,2.14,1.30,1.70*05
$GPGSV,3,1,12,04,10,231,09,07,25,297,12,11,01,248,,13,09,014,08*72
$GPGSV,3,2,12,15,09,047,21,16,55,185,25,18,43,099,33,19,48,276,25*74
$GPGSV,3,3,12,21,33,065,31,22,33,143,19,27,81,270,25,30,16,327,15*7E
$GPGLL,5556.38466,N,00313.09348,W,225855.00,A,A*7D
$GPRMC,225856.00,A,5556.38453,N,00313.09368,W,0.307,,070415,,,A*60
$GPVTG,,T,,M,0.307,N,0.569,K,A*2D
$GPGGA,225856.00,5556.38453,N,00313.09368,W,1,07,1.30,119.9,M,49.8,M,,*4F
$GPGSA,A,3,27,16,21,18,22,19,04,,,,,,2.14,1.30,1.70*05
$GPGSV,3,1,12,04,10,231,09,07,25,297,10,11,01,248,,13,09,014,08*70
$GPGSV,3,2,12,15,09,047,21,16,55,185,26,18,43,099,34,19,48,276,25*70
$GPGSV,3,3,12,21,33,065,33,22,33,143,20,27,81,270,25,30,16,327,15*76
$GPGLL,5556.38453,N,00313.09368,W,225856.00,A,A*7A
$GPRMC,225857.00,A,5556.38450,N,00313.09374,W,0.244,,070415,,,A*69
$GPVTG,,T,,M,0.244,N,0.451,K,A*21
$GPGGA,225857.00,5556.38450,N,00313.09374,W,1,07,1.30,119.8,M,49.8,M,,*41
$GPGSA,A,3,27,16,21,18,22,19,04,,,,,,2.14,1.30,1.70*05
$GPGSV,3,1,12,04,10,231,09,07,25,297,12,11,01,248,,13,09,014,07*7D
$GPGSV,3,2,12,15,09,047,21,16,55,185,26,18,43,099,35,19,48,276,25*71
$GPGSV,3,3,12,21,33,065,33,22,33,143,20,27,81,270,26,30,16,327,16*76
$GPGLL,5556.38450,N,00313.09374,W,225857.00,A,A*75
$GPRMC,225858.00,A,5556.38442,N,00313.09381,W,0.183,,070415,,,A*67
$GPVTG,,T,,M,0.183,N,0.339,K,A*20
$GPGGA,225858.00,5556.38442,N,00313.09381,W,1,07,1.30,119.6,M,49.8,M,,*49
$GPGSA,A,3,27,16,21,18,22,19,04,,,,,,2.14,1.30,1.70*05
$GPGSV,3,1,12,04,10,231,08,07,25,297,12,11,01,248,,13,09,014,12*78
